Name,Cycle_Time_in_Days,Link,lat,lon

A102 Pear Island,26.00,http://archive.tfljamcams.net/archive/A102_Pear_Island/,51.4961,0.00227
A12 M11 Redbrdg 100A,26.00,http://archive.tfljamcams.net/archive/A12_M11_Redbrdg_100A/,51.576,0.04432
A10 North of Waterson St,26.00,http://archive.tfljamcams.net/archive/A10_North_of_Waterson_St/,51.5289,-0.07774
A205 London Rd Dartmouth Rd,26.00,http://archive.tfljamcams.net/archive/A205_London_Rd_Dartmouth_Rd/,51.439,-0.0538
A10 North of Shenfield St,26.00,http://archive.tfljamcams.net/archive/A10_North_of_Shenfield_St/,51.5312,-0.07699
A205 Westhorne Av Sidcup Rd,26.00,http://archive.tfljamcams.net/archive/A205_Westhorne_Av_Sidcup_Rd/,51.4501,0.02974
A127 Squirrels Heath Drive,26.00,http://archive.tfljamcams.net/archive/A127_Squirrels_Heath_Drive/,51.5869,0.22454
A10 North of Holywell Ln,26.00,http://archive.tfljamcams.net/archive/A10_North_of_Holywell_Ln/,51.5239,-0.07727
A23 Streatham Hill Sternhold Ave,26.00,http://archive.tfljamcams.net/archive/A23_Streatham_Hill_Sternhold_Ave/,51.4378,-0.12696
A205 north of Broad Walk,26.00,http://archive.tfljamcams.net/archive/A205_north_of_Broad_Walk/,51.4695,0.05439
A20 Lee High Rd Lampmead Rd,26.00,http://archive.tfljamcams.net/archive/A20_Lee_High_Rd_Lampmead_Rd/,51.4571,0.00907
A21 Bromley Rd Penerley Rd,26.00,http://archive.tfljamcams.net/archive/A21_Bromley_Rd_Penerley_Rd/,51.4409,-0.02073
A23 Brixton Rd Hillyard St,26.00,http://archive.tfljamcams.net/archive/A23_Brixton_Rd_Hillyard_St/,51.4741,-0.11272
A12 Kswood Rd 3893A,26.00,http://archive.tfljamcams.net/archive/A12_Kswood_Rd_3893A/,51.571,0.01022
A23 Streatham H Rd Colmer Rd,26.00,http://archive.tfljamcams.net/archive/A23_Streatham_H_Rd_Colmer_Rd/,51.4145,-0.12426
A12 Eastern Avenue A125 North St,26.00,http://archive.tfljamcams.net/archive/A12_Eastern_Avenue_A125_North_St/,51.5865,0.17314
A10 South of St Peters Way,26.00,http://archive.tfljamcams.net/archive/A10_South_of_St_Peters_Way/,51.5405,-0.07668
Blackfriars Rd Stamford St,26.00,http://archive.tfljamcams.net/archive/Blackfriars_Rd_Stamford_St/,51.5072,-0.10443
A10 North of Northwold Rd,26.00,http://archive.tfljamcams.net/archive/A10_North_of_Northwold_Rd/,51.5636,-0.07325
NEWHAM WAY - FORTY ACRE LANE,26.00,http://archive.tfljamcams.net/archive/NEWHAM_WAY_-_FORTY_ACRE_LANE/,51.5158,0.01067
Seven Sisters Rd St Ann,26.00,http://archive.tfljamcams.net/archive/Seven_Sisters_Rd_St_Ann/,51.5798,-0.07978
Old Brompton Rd Finboro Rd,26.00,http://archive.tfljamcams.net/archive/Old_Brompton_Rd_Finboro_Rd/,51.4886,-0.19275
Shepherds Bush Rd Westwick Gdns,26.00,http://archive.tfljamcams.net/archive/Shepherds_Bush_Rd_Westwick_Gdns/,51.5015,-0.22202
Shaftesbury Ave   Macclesfield St,26.00,http://archive.tfljamcams.net/archive/Shaftesbury_Ave___Macclesfield_St/,51.5121,-0.13158
Seven Sisters Rd Alexandria Grove,26.00,http://archive.tfljamcams.net/archive/Seven_Sisters_Rd_Alexandria_Grove/,51.568,-0.09933
Shooters Hill Rd Charlton Pk Ln,26.00,http://archive.tfljamcams.net/archive/Shooters_Hill_Rd_Charlton_Pk_Ln/,51.4743,0.03774
Scrubs Lane North Pole Rd,26.00,http://archive.tfljamcams.net/archive/Scrubs_Lane_North_Pole_Rd/,51.5189,-0.22793
St Georges Sq Lupus St,26.00,http://archive.tfljamcams.net/archive/St_Georges_Sq_Lupus_St/,51.4887,-0.13477
Shepherd Bush Rd Brook Green,26.00,http://archive.tfljamcams.net/archive/Shepherd_Bush_Rd_Brook_Green/,51.4975,-0.22253
Rosebery Av Mount Pleasant,26.00,http://archive.tfljamcams.net/archive/Rosebery_Av_Mount_Pleasant/,51.5246,-0.111
Silvertown Way,26.00,http://archive.tfljamcams.net/archive/Silvertown_Way/,51.5153,0.00814
Sterling Way Slip Victoria St,26.00,http://archive.tfljamcams.net/archive/Sterling_Way_Slip_Victoria_St/,51.6145,-0.06816
South Lambeth Rd Miles St,26.00,http://archive.tfljamcams.net/archive/South_Lambeth_Rd_Miles_St/,51.4826,-0.12416
Stamford Hill Amhurst Pk,26.00,http://archive.tfljamcams.net/archive/Stamford_Hill_Amhurst_Pk/,51.5732,-0.07268
Talgarth Rd Butterwick,26.00,http://archive.tfljamcams.net/archive/Talgarth_Rd_Butterwick/,51.4914,-0.22206
Stamford Hill Egerton Rd,26.00,http://archive.tfljamcams.net/archive/Stamford_Hill_Egerton_Rd/,51.5743,-0.07221
Shoreditch High St Batemans Row,26.00,http://archive.tfljamcams.net/archive/Shoreditch_High_St_Batemans_Row/,51.5252,-0.07732
Seven Sisters Rd Manor House,26.00,http://archive.tfljamcams.net/archive/Seven_Sisters_Rd_Manor_House/,51.5706,-0.09615
Sheen Lane Larches Av,26.00,http://archive.tfljamcams.net/archive/Sheen_Lane_Larches_Av/,51.4644,-0.26661
Seven Sisters Rd Woodberry Grove,26.00,http://archive.tfljamcams.net/archive/Seven_Sisters_Rd_Woodberry_Grove/,51.5724,-0.09078
Southwark St Southwark Bdge Rd,26.00,http://archive.tfljamcams.net/archive/Southwark_St_Southwark_Bdge_Rd/,51.5048,-0.09535
Seven Sisters Rd by Fonthill Rd,26.00,http://archive.tfljamcams.net/archive/Seven_Sisters_Rd_by_Fonthill_Rd/,51.5631,-0.10827
Seven Sisters Rd Holloway Rd,26.00,http://archive.tfljamcams.net/archive/Seven_Sisters_Rd_Holloway_Rd/,51.5579,-0.11958
The Vale   Eastman Rd,26.00,http://archive.tfljamcams.net/archive/The_Vale___Eastman_Rd/,51.5064,-0.26051
Theobalds Rd Boswell St,26.00,http://archive.tfljamcams.net/archive/Theobalds_Rd_Boswell_St/,51.5196,-0.12019
Sevn Sistrs Rd Blackstock Rd,26.00,http://archive.tfljamcams.net/archive/Sevn_Sistrs_Rd_Blackstock_Rd/,51.5646,-0.10464
Seven Sisters Rd Op Yonge Pk,26.00,http://archive.tfljamcams.net/archive/Seven_Sisters_Rd_Op_Yonge_Pk/,51.5623,-0.11041
Shoreditch High St Commercial St,26.00,http://archive.tfljamcams.net/archive/Shoreditch_High_St_Commercial_St/,51.5228,-0.07762
South Lambeth Rd Parry St,26.00,http://archive.tfljamcams.net/archive/South_Lambeth_Rd_Parry_St/,51.4843,-0.12288
Shepherd Bush Gr Wood Lane,26.00,http://archive.tfljamcams.net/archive/Shepherd_Bush_Gr_Wood_Lane/,51.5051,-0.22477
Seven Sisters Rd Wilberforce Rd,26.00,http://archive.tfljamcams.net/archive/Seven_Sisters_Rd_Wilberforce_Rd/,51.5656,-0.10288
St Georges Rd Hayles St,26.00,http://archive.tfljamcams.net/archive/St_Georges_Rd_Hayles_St/,51.4958,-0.10358
South Lambeth Rd Tradescant Rd,26.00,http://archive.tfljamcams.net/archive/South_Lambeth_Rd_Tradescant_Rd/,51.4789,-0.12365
Stamford Hill Dunsmure Road,26.00,http://archive.tfljamcams.net/archive/Stamford_Hill_Dunsmure_Road/,51.5702,-0.07297
Tooley St Boss St,26.00,http://archive.tfljamcams.net/archive/Tooley_St_Boss_St/,51.502,-0.07681
The Highway Wapping Lane,26.00,http://archive.tfljamcams.net/archive/The_Highway_Wapping_Lane/,51.5097,-0.05876
The Broadway Windsor Rd,26.00,http://archive.tfljamcams.net/archive/The_Broadway_Windsor_Rd/,51.514,-0.30067
Strand Lancaster Place,26.00,http://archive.tfljamcams.net/archive/Strand_Lancaster_Place/,51.5114,-0.11924
Swiss Cottage Finchley Rd,26.00,http://archive.tfljamcams.net/archive/Swiss_Cottage_Finchley_Rd/,51.544,-0.17502
Tottenham High Road   Seven Sisters Rd,26.00,http://archive.tfljamcams.net/archive/Tottenham_High_Road___Seven_Sisters_Rd/,51.5831,-0.07226
Upper Richmond Rd Putney Hill,26.00,http://archive.tfljamcams.net/archive/Upper_Richmond_Rd_Putney_Hill/,51.4606,-0.21706
Trafalgar Square,26.00,http://archive.tfljamcams.net/archive/Trafalgar_Square/,51.5074,-0.12765
Vauxhall Brd Rd Stanford St,26.00,http://archive.tfljamcams.net/archive/Vauxhall_Brd_Rd_Stanford_St/,51.4916,-0.1359
Upper St by Canonbury Lane,26.00,http://archive.tfljamcams.net/archive/Upper_St_by_Canonbury_Lane/,51.5435,-0.10316
Waterworks R B,26.00,http://archive.tfljamcams.net/archive/Waterworks_R_B/,51.5955,0.01088
Warwick Rd W Cromwell Rd,26.00,http://archive.tfljamcams.net/archive/Warwick_Rd_W_Cromwell_Rd/,51.4927,-0.20044
Walworth Rd Heygate St,26.00,http://archive.tfljamcams.net/archive/Walworth_Rd_Heygate_St/,51.4918,-0.09814
Wandsworth Common North,26.00,http://archive.tfljamcams.net/archive/Wandsworth_Common_North/,51.458,-0.18139
Waterworks E B On-Slip,26.00,http://archive.tfljamcams.net/archive/Waterworks_E_B_On-Slip/,51.5956,0.01903
Waterloo Bridge south,26.00,http://archive.tfljamcams.net/archive/Waterloo_Bridge_south/,51.5053,-0.11402
A3 East Of Garratt Lane,26.00,http://archive.tfljamcams.net/archive/A3_East_Of_Garratt_Lane/,51.4567,-0.19224
A3 Tibett Crn Withycombe Rd,26.00,http://archive.tfljamcams.net/archive/A3_Tibett_Crn_Withycombe_Rd/,51.4486,-0.22172
Farringdon Rd Cowcross St,26.00,http://archive.tfljamcams.net/archive/Farringdon_Rd_Cowcross_St/,51.52,-0.10586
City Road   Epworth St,26.00,http://archive.tfljamcams.net/archive/City_Road___Epworth_St/,51.5236,-0.0873
Watford Way Great North Way,26.00,http://archive.tfljamcams.net/archive/Watford_Way_Great_North_Way/,51.6019,-0.23509
Brighton Rd A23 Coulsdon Bypass,26.00,http://archive.tfljamcams.net/archive/Brighton_Rd_A23_Coulsdon_Bypass/,51.3169,-0.13864
Euston Rd Conway St,26.00,http://archive.tfljamcams.net/archive/Euston_Rd_Conway_St/,51.5243,-0.14038
A41 Finchley Rd Boundary Rd W,26.00,http://archive.tfljamcams.net/archive/A41_Finchley_Rd_Boundary_Rd_W/,51.5397,-0.17592
Archway Rd   Causton Rd,26.00,http://archive.tfljamcams.net/archive/Archway_Rd___Causton_Rd/,51.5736,-0.14128
Edgware Way   Broadfields Ave,26.00,http://archive.tfljamcams.net/archive/Edgware_Way___Broadfields_Ave/,51.6216,-0.27384
Camden Rd N Of Camden Pk Rd,26.00,http://archive.tfljamcams.net/archive/Camden_Rd_N_Of_Camden_Pk_Rd/,51.548,-0.1301
East India Dock Rd Leamouth Rd,26.00,http://archive.tfljamcams.net/archive/East_India_Dock_Rd_Leamouth_Rd/,51.5128,-0.00081
Brixton Rd Island Place,26.00,http://archive.tfljamcams.net/archive/Brixton_Rd_Island_Place/,51.4783,-0.11223
A406 Cooks Ferry R B,26.00,http://archive.tfljamcams.net/archive/A406_Cooks_Ferry_R_B/,51.6133,-0.03691
A23 Streatham H Rd Heathdene Rd,26.00,http://archive.tfljamcams.net/archive/A23_Streatham_H_Rd_Heathdene_Rd/,51.4163,-0.12528
Camberwell N Rd Camberwell Pas,26.00,http://archive.tfljamcams.net/archive/Camberwell_N_Rd_Camberwell_Pas/,51.4749,-0.09507
A40 Western Ave Gibbon Rd,26.00,http://archive.tfljamcams.net/archive/A40_Western_Ave_Gibbon_Rd/,51.5149,-0.25655
Brixton Hill  Lambert Rd,26.00,http://archive.tfljamcams.net/archive/Brixton_Hill__Lambert_Rd/,51.4553,-0.1194
A406 Golders Grn Rd,26.00,http://archive.tfljamcams.net/archive/A406_Golders_Grn_Rd/,51.5808,-0.21202
A3 Clapham Road B221 Bedford Road,26.00,http://archive.tfljamcams.net/archive/A3_Clapham_Road_B221_Bedford_Road/,51.4655,-0.12967
A406 A10 U Pass West,26.00,http://archive.tfljamcams.net/archive/A406_A10_U_Pass_West/,51.6165,-0.09136
Farnborough Common Croydon Rd,26.00,http://archive.tfljamcams.net/archive/Farnborough_Common_Croydon_Rd/,51.3662,0.05311
White Lion St   Upper St,26.00,http://archive.tfljamcams.net/archive/White_Lion_St___Upper_St/,51.5328,-0.107
A4 Chiswick Roundabout,26.00,http://archive.tfljamcams.net/archive/A4_Chiswick_Roundabout/,51.4912,-0.2829
Bath Rd Berkeley Avenue,26.00,http://archive.tfljamcams.net/archive/Bath_Rd_Berkeley_Avenue/,51.4793,-0.40988
Watling St Gravel Hill,26.00,http://archive.tfljamcams.net/archive/Watling_St_Gravel_Hill/,51.4551,0.153
A4 Bath Rd Henlys Rabout,26.00,http://archive.tfljamcams.net/archive/A4_Bath_Rd_Henlys_Rabout/,51.4751,-0.39441
Marsh Way West,26.00,http://archive.tfljamcams.net/archive/Marsh_Way_West/,51.5199,0.16853
Battersea Pk Rd Battersea Brg,26.00,http://archive.tfljamcams.net/archive/Battersea_Pk_Rd_Battersea_Brg/,51.4723,-0.16512
Kland Rd Balls Pond Rd,26.00,http://archive.tfljamcams.net/archive/Kland_Rd_Balls_Pond_Rd/,51.5458,-0.07567
Kenington Pk Rd Kennington Oval,26.00,http://archive.tfljamcams.net/archive/Kenington_Pk_Rd_Kennington_Oval/,51.4824,-0.11208
Victoria St Wilton Rd,26.00,http://archive.tfljamcams.net/archive/Victoria_St_Wilton_Rd/,51.4963,-0.14243
Uxbridge Road Greenford Road,26.00,http://archive.tfljamcams.net/archive/Uxbridge_Road_Greenford_Road/,51.5096,-0.35525
West Parkside John Harrison Wy,26.00,http://archive.tfljamcams.net/archive/West_Parkside_John_Harrison_Wy/,51.4949,0.01184
Vauxhall Brd Rd Drummond Gt,26.00,http://archive.tfljamcams.net/archive/Vauxhall_Brd_Rd_Drummond_Gt/,51.4897,-0.13145
Vauxhall Cross,26.00,http://archive.tfljamcams.net/archive/Vauxhall_Cross/,51.4864,-0.12372
Victoria St   Buckingham Palace Rd,26.00,http://archive.tfljamcams.net/archive/Victoria_St___Buckingham_Palace_Rd/,51.4967,-0.14379
Wickham Rd Monks Orchard Rd,26.00,http://archive.tfljamcams.net/archive/Wickham_Rd_Monks_Orchard_Rd/,51.3773,-0.02857
Watford Way Mill Hill Circus,26.00,http://archive.tfljamcams.net/archive/Watford_Way_Mill_Hill_Circus/,51.6154,-0.24215
York Road Falcon Road,26.00,http://archive.tfljamcams.net/archive/York_Road_Falcon_Road/,51.47,-0.17175
New Kings Rd Wanworth Brg Rd,26.00,http://archive.tfljamcams.net/archive/New_Kings_Rd_Wanworth_Brg_Rd/,51.4765,-0.19286
Marylebone Rd Osnaburgh St,26.00,http://archive.tfljamcams.net/archive/Marylebone_Rd_Osnaburgh_St/,51.5241,-0.14352
Park Lane South of Mount Street,26.00,http://archive.tfljamcams.net/archive/Park_Lane_South_of_Mount_Street/,51.5089,-0.15462
A13 East India Dock Cotton St,26.00,http://archive.tfljamcams.net/archive/A13_East_India_Dock_Cotton_St/,51.5115,-0.00971
Kennington Ln Chester Way,26.00,http://archive.tfljamcams.net/archive/Kennington_Ln_Chester_Way/,51.4899,-0.10798
Uxbridge Road Browells Lane,26.00,http://archive.tfljamcams.net/archive/Uxbridge_Road_Browells_Lane/,51.4453,-0.39974
London Road Raymead Avenue,26.00,http://archive.tfljamcams.net/archive/London_Road_Raymead_Avenue/,51.394,-0.11425
Twickenham Rd St Johns Grove,26.00,http://archive.tfljamcams.net/archive/Twickenham_Rd_St_Johns_Grove/,51.465,-0.30139
A13 A406 Beckton Rb,26.00,http://archive.tfljamcams.net/archive/A13_A406_Beckton_Rb/,51.5258,0.07349
A40  Near Mansfield Rd,26.00,http://archive.tfljamcams.net/archive/A40__Near_Mansfield_Rd/,51.5262,-0.27502
Mile End Rd Cleveland Way,26.00,http://archive.tfljamcams.net/archive/Mile_End_Rd_Cleveland_Way/,51.5205,-0.05217
Oxford St Vere St,26.00,http://archive.tfljamcams.net/archive/Oxford_St_Vere_St/,51.5147,-0.14721
Tooley St Bermondsey St,26.00,http://archive.tfljamcams.net/archive/Tooley_St_Bermondsey_St/,51.5046,-0.08342
Major Rd Crownfield Rd,26.00,http://archive.tfljamcams.net/archive/Major_Rd_Crownfield_Rd/,51.551,-0.00402
Upper Rmond Rd Clifford Ave,26.00,http://archive.tfljamcams.net/archive/Upper_Rmond_Rd_Clifford_Ave/,51.4642,-0.27609
Kennington Lane Kennington Rd,26.00,http://archive.tfljamcams.net/archive/Kennington_Lane_Kennington_Rd/,51.4884,-0.11116
Tottenham Court Rd Grafton Way,26.00,http://archive.tfljamcams.net/archive/Tottenham_Court_Rd_Grafton_Way/,51.5238,-0.13724
A3 Clapham Rd Handforth Street,26.00,http://archive.tfljamcams.net/archive/A3_Clapham_Rd_Handforth_Street/,51.4798,-0.11451
Beckton East,26.00,http://archive.tfljamcams.net/archive/Beckton_East/,51.5271,0.07776
Hyde Park Corner Park Lane,26.00,http://archive.tfljamcams.net/archive/Hyde_Park_Corner_Park_Lane/,51.5033,-0.15099
Balham High Rd Upper Tting Pk,26.00,http://archive.tfljamcams.net/archive/Balham_High_Rd_Upper_Tting_Pk/,51.4389,-0.15648
A12 Church Ln 3839A,26.00,http://archive.tfljamcams.net/archive/A12_Church_Ln_3839A/,51.5667,0.00641
A2 Eltham East E B,26.00,http://archive.tfljamcams.net/archive/A2_Eltham_East_E_B/,51.4562,0.05905
A1 Watford Way The Broadway,26.00,http://archive.tfljamcams.net/archive/A1_Watford_Way_The_Broadway/,51.6169,-0.24511
A10 Kingsland High St Winchester,26.00,http://archive.tfljamcams.net/archive/A10_Kingsland_High_St_Winchester/,51.5484,-0.07533
A1 Archway Rd Bakers Ln,26.00,http://archive.tfljamcams.net/archive/A1_Archway_Rd_Bakers_Ln/,51.5818,-0.15645
A13 Branch Road,26.00,http://archive.tfljamcams.net/archive/A13_Branch_Road/,51.5128,-0.0388
A205 Waldram Pk Rd Westbourne Dr,26.00,http://archive.tfljamcams.net/archive/A205_Waldram_Pk_Rd_Westbourne_Dr/,51.4401,-0.05056
Vauxhall B Rd N Rampayne St,26.00,http://archive.tfljamcams.net/archive/Vauxhall_B_Rd_N_Rampayne_St/,51.4903,-0.13315
Fulham Palace Rd Lysia St,26.00,http://archive.tfljamcams.net/archive/Fulham_Palace_Rd_Lysia_St/,51.4818,-0.21805
A4 Great W Rd Syon Ln,26.00,http://archive.tfljamcams.net/archive/A4_Great_W_Rd_Syon_Ln/,51.4833,-0.32614
Thurlow Park Road Croxted Road,26.00,http://archive.tfljamcams.net/archive/Thurlow_Park_Road_Croxted_Road/,51.4412,-0.09268
Park Lane Opposite Stanhope Gate,26.00,http://archive.tfljamcams.net/archive/Park_Lane_Opposite_Stanhope_Gate/,51.5066,-0.15277
A23 Stafford Road,26.00,http://archive.tfljamcams.net/archive/A23_Stafford_Road/,51.3648,-0.11848
Movers Lane West,26.00,http://archive.tfljamcams.net/archive/Movers_Lane_West/,51.5292,0.08953
Old Kent Rd St James Rd,26.00,http://archive.tfljamcams.net/archive/Old_Kent_Rd_St_James_Rd/,51.4839,-0.06641
A12 Dyers Hl W 3793A,26.00,http://archive.tfljamcams.net/archive/A12_Dyers_Hl_W_3793A/,51.5632,0.00348
Romford Rd   Tennyson Rd,26.00,http://archive.tfljamcams.net/archive/Romford_Rd___Tennyson_Rd/,51.5421,0.00524
Victoria Embkmt Temple Place,26.00,http://archive.tfljamcams.net/archive/Victoria_Embkmt_Temple_Place/,51.5107,-0.11512
Wandworth Bridge York Rd,26.00,http://archive.tfljamcams.net/archive/Wandworth_Bridge_York_Rd/,51.4629,-0.18604
Old Kent Rd Albany Rd,26.00,http://archive.tfljamcams.net/archive/Old_Kent_Rd_Albany_Rd/,51.4881,-0.07669
Marcilly Rd Elsynge Rd,26.00,http://archive.tfljamcams.net/archive/Marcilly_Rd_Elsynge_Rd/,51.4588,-0.17952
A205 Christchurch Rd A23 Brixton H,26.00,http://archive.tfljamcams.net/archive/A205_Christchurch_Rd_A23_Brixton_H/,51.4452,-0.12418
Falloden Way Northway Hill Rise,26.00,http://archive.tfljamcams.net/archive/Falloden_Way_Northway_Hill_Rise/,51.5858,-0.18285
Upper Tooting Rd Topsham Rd,26.00,http://archive.tfljamcams.net/archive/Upper_Tooting_Rd_Topsham_Rd/,51.4346,-0.1615
Upper St Theberton St,26.00,http://archive.tfljamcams.net/archive/Upper_St_Theberton_St/,51.538,-0.10247
Uxbridge Rd Chapel Rd,26.00,http://archive.tfljamcams.net/archive/Uxbridge_Rd_Chapel_Rd/,51.5109,-0.31884
Upper St Highbury Corner,26.00,http://archive.tfljamcams.net/archive/Upper_St_Highbury_Corner/,51.5456,-0.1033
Trafalgar Rd Greenwich Pk St,26.00,http://archive.tfljamcams.net/archive/Trafalgar_Rd_Greenwich_Pk_St/,51.4837,-0.00014
Tower Bridge App. East Smithfield,26.00,http://archive.tfljamcams.net/archive/Tower_Bridge_App._East_Smithfield/,51.509,-0.07368
A2 New Cross Rd Avonley Rd,26.00,http://archive.tfljamcams.net/archive/A2_New_Cross_Rd_Avonley_Rd/,51.4778,-0.05185
Victoria St Bressenden Place,26.00,http://archive.tfljamcams.net/archive/Victoria_St_Bressenden_Place/,51.4966,-0.14156
Upper Tooting Rd Kellino St,26.00,http://archive.tfljamcams.net/archive/Upper_Tooting_Rd_Kellino_St/,51.4305,-0.16531
Upper St by Essex Rd,26.00,http://archive.tfljamcams.net/archive/Upper_St_by_Essex_Rd/,51.5355,-0.10381
A5 Edgware Rd Cuthbert St,26.00,http://archive.tfljamcams.net/archive/A5_Edgware_Rd_Cuthbert_St/,51.5231,-0.17438
Upper St Nth Duncan St,26.00,http://archive.tfljamcams.net/archive/Upper_St_Nth_Duncan_St/,51.534,-0.10518
Upper St St Albans Place,26.00,http://archive.tfljamcams.net/archive/Upper_St_St_Albans_Place/,51.5364,-0.10364
University St Gower St,26.00,http://archive.tfljamcams.net/archive/University_St_Gower_St/,51.5239,-0.1341
Angel Islington,26.00,http://archive.tfljamcams.net/archive/Angel_Islington/,51.5319,-0.10642
High St Grosvenor Rd W Wickham,26.00,http://archive.tfljamcams.net/archive/High_St_Grosvenor_Rd_W_Wickham/,51.3769,-0.02043
ASPEN WAY - BLACKWALL WAY,26.00,http://archive.tfljamcams.net/archive/ASPEN_WAY_-_BLACKWALL_WAY/,51.5084,-0.00388
ASPEN WAY - UPPER BANK STREET,26.00,http://archive.tfljamcams.net/archive/ASPEN_WAY_-_UPPER_BANK_STREET/,51.5071,-0.0162
Goswell Rd Opp Owen St,26.00,http://archive.tfljamcams.net/archive/Goswell_Rd_Opp_Owen_St/,51.5313,-0.10463
A5 Kilburn High Rd Willesden Ln,26.00,http://archive.tfljamcams.net/archive/A5_Kilburn_High_Rd_Willesden_Ln/,51.5417,-0.19768
City Rd by Central St,26.00,http://archive.tfljamcams.net/archive/City_Rd_by_Central_St/,51.5295,-0.09677
Uxbridge Rd Park View Rd,26.00,http://archive.tfljamcams.net/archive/Uxbridge_Rd_Park_View_Rd/,51.511,-0.36935
A406 Telford Rd Bowes Rd,26.00,http://archive.tfljamcams.net/archive/A406_Telford_Rd_Bowes_Rd/,51.6151,-0.12769
Court Rd Sidcup Rd,26.00,http://archive.tfljamcams.net/archive/Court_Rd_Sidcup_Rd/,51.4391,0.05007
A40 Wales Farm Rd,26.00,http://archive.tfljamcams.net/archive/A40_Wales_Farm_Rd/,51.5196,-0.26273
Albert Bridge Rd,26.00,http://archive.tfljamcams.net/archive/Albert_Bridge_Rd/,51.4813,-0.1663
Grosvenor Chapel St,26.00,http://archive.tfljamcams.net/archive/Grosvenor_Chapel_St/,51.5005,-0.14971
Gt Eastern St Holywell Ln,26.00,http://archive.tfljamcams.net/archive/Gt_Eastern_St_Holywell_Ln/,51.5241,-0.07984
Camden High St Symes Mews,26.00,http://archive.tfljamcams.net/archive/Camden_High_St_Symes_Mews/,51.5352,-0.13897
A501 E of Gloucester Pl,26.00,http://archive.tfljamcams.net/archive/A501_E_of_Gloucester_Pl/,51.5217,-0.15924
Gtreat Cambridge Rd   Church St,26.00,http://archive.tfljamcams.net/archive/Gtreat_Cambridge_Rd___Church_St/,51.6301,-0.0782
A4 Bath Rd The Avenue,26.00,http://archive.tfljamcams.net/archive/A4_Bath_Rd_The_Avenue/,51.48,-0.4118
High Street Rick Roberts Way,26.00,http://archive.tfljamcams.net/archive/High_Street_Rick_Roberts_Way/,51.535,-0.0056
A406   Harrow Rd   Brentfield,26.00,http://archive.tfljamcams.net/archive/A406___Harrow_Rd___Brentfield/,51.5448,-0.27287
Gt Eastern St Curtain Rd,26.00,http://archive.tfljamcams.net/archive/Gt_Eastern_St_Curtain_Rd/,51.5244,-0.08028
A41 Hendon Way Cricklewood Lane,26.00,http://archive.tfljamcams.net/archive/A41_Hendon_Way_Cricklewood_Lane/,51.5613,-0.20345
H.Stead Rd Mornington Cr,26.00,http://archive.tfljamcams.net/archive/H.Stead_Rd_Mornington_Cr/,51.5343,-0.13926
HIGH ROAD LEYTONSTONE BUSH ROAD,26.00,http://archive.tfljamcams.net/archive/HIGH_ROAD_LEYTONSTONE_BUSH_ROAD/,51.571,0.01577
Jamaica Rd E of Abbey St,26.00,http://archive.tfljamcams.net/archive/Jamaica_Rd_E_of_Abbey_St/,51.4985,-0.06964
Grt Cambridge Rd A406 NCR Rabout,26.00,http://archive.tfljamcams.net/archive/Grt_Cambridge_Rd_A406_NCR_Rabout/,51.617,-0.0866
Chepstow Rd Addiscombe Rd,26.00,http://archive.tfljamcams.net/archive/Chepstow_Rd_Addiscombe_Rd/,51.375,-0.08142
A406 Hale End Rd E,26.00,http://archive.tfljamcams.net/archive/A406_Hale_End_Rd_E/,51.5999,-0.00026
High Rd Wood Grn-Ewart Grove,26.00,http://archive.tfljamcams.net/archive/High_Rd_Wood_Grn-Ewart_Grove/,51.5997,-0.11118
Baker St  Marylebone Rd,26.00,http://archive.tfljamcams.net/archive/Baker_St__Marylebone_Rd/,51.522,-0.1576
Kennington Oval,26.00,http://archive.tfljamcams.net/archive/Kennington_Oval/,51.483,-0.11601
A406 Gunnersbury Ave Gunnersbury Ln,26.00,http://archive.tfljamcams.net/archive/A406_Gunnersbury_Ave_Gunnersbury_Ln/,51.5006,-0.2843
High St Station way The Cheam,26.00,http://archive.tfljamcams.net/archive/High_St_Station_way_The_Cheam/,51.3577,-0.21576
Holloway Rd Sth Fieldway Cres,26.00,http://archive.tfljamcams.net/archive/Holloway_Rd_Sth_Fieldway_Cres/,51.5492,-0.10762
Holloway Rd Highbury Corner,26.00,http://archive.tfljamcams.net/archive/Holloway_Rd_Highbury_Corner/,51.5465,-0.1039
Hyde Park Corner,26.00,http://archive.tfljamcams.net/archive/Hyde_Park_Corner/,51.5021,-0.15238
A501 East of Melton St,26.00,http://archive.tfljamcams.net/archive/A501_East_of_Melton_St/,51.5265,-0.13356
Green Lanes- St Ann,26.00,http://archive.tfljamcams.net/archive/Green_Lanes-_St_Ann/,51.5828,-0.09972
A40   Target Roundabout,26.00,http://archive.tfljamcams.net/archive/A40___Target_Roundabout/,51.5425,-0.37712
Grand Depot Rd John Wilson St,26.00,http://archive.tfljamcams.net/archive/Grand_Depot_Rd_John_Wilson_St/,51.4875,0.06352
Finchley Road   West End Lane,26.00,http://archive.tfljamcams.net/archive/Finchley_Road___West_End_Lane/,51.5528,-0.18881
A4 Hogarth Roundabout,26.00,http://archive.tfljamcams.net/archive/A4_Hogarth_Roundabout/,51.4872,-0.25186
Ferry Lane,26.00,http://archive.tfljamcams.net/archive/Ferry_Lane/,51.5119,0.18383
Horseferry Rd Marsham St,26.00,http://archive.tfljamcams.net/archive/Horseferry_Rd_Marsham_St/,51.4949,-0.12891
Hanger Lane Uxbridge Rd,26.00,http://archive.tfljamcams.net/archive/Hanger_Lane_Uxbridge_Rd/,51.5117,-0.29219
Kennington Lane,26.00,http://archive.tfljamcams.net/archive/Kennington_Lane/,51.4861,-0.12191
Jamaica Rd W of Lower Rd,26.00,http://archive.tfljamcams.net/archive/Jamaica_Rd_W_of_Lower_Rd/,51.4991,-0.05633
High St Colliers Wd Cavendish Rd,26.00,http://archive.tfljamcams.net/archive/High_St_Colliers_Wd_Cavendish_Rd/,51.4188,-0.17743
Harleyford Rd Vauxhall Grove,26.00,http://archive.tfljamcams.net/archive/Harleyford_Rd_Vauxhall_Grove/,51.4854,-0.12036
Fore St West Ramp,26.00,http://archive.tfljamcams.net/archive/Fore_St_West_Ramp/,51.6146,-0.0733
Homerton High St Digby Road,26.00,http://archive.tfljamcams.net/archive/Homerton_High_St_Digby_Road/,51.5482,-0.04448
Harleyford St Ken Pk Rd,26.00,http://archive.tfljamcams.net/archive/Harleyford_St_Ken_Pk_Rd/,51.4823,-0.11264
Hobart Place Grosvenor Place,26.00,http://archive.tfljamcams.net/archive/Hobart_Place_Grosvenor_Place/,51.4982,-0.14695
A13 A102 EIDR,26.00,http://archive.tfljamcams.net/archive/A13_A102_EIDR/,51.5114,-0.00758
Holland Rd Addison Crescent,26.00,http://archive.tfljamcams.net/archive/Holland_Rd_Addison_Crescent/,51.4998,-0.21009
Grays Inn Rd   Acton St,26.00,http://archive.tfljamcams.net/archive/Grays_Inn_Rd___Acton_St/,51.5282,-0.11917
Wood Lane South Africa Road,26.00,http://archive.tfljamcams.net/archive/Wood_Lane_South_Africa_Road/,51.5129,-0.22523
Upper Tooting Rd Ansell Rd,26.00,http://archive.tfljamcams.net/archive/Upper_Tooting_Rd_Ansell_Rd/,51.4327,-0.16385
Westminster Bridge York Rd,26.00,http://archive.tfljamcams.net/archive/Westminster_Bridge_York_Rd/,51.5009,-0.11762
Upper Richmond Rd Ravenna Rd,26.00,http://archive.tfljamcams.net/archive/Upper_Richmond_Rd_Ravenna_Rd/,51.4615,-0.22031
Wworth High St Wworth Plain,26.00,http://archive.tfljamcams.net/archive/Wworth_High_St_Wworth_Plain/,51.4573,-0.19502
Wennington Viaduct W,26.00,http://archive.tfljamcams.net/archive/Wennington_Viaduct_W/,51.5033,0.21103
Upper Woburn Place - Woburn Walk,26.00,http://archive.tfljamcams.net/archive/Upper_Woburn_Place_-_Woburn_Walk/,51.5264,-0.12967
Woolwich Manor Way,26.00,http://archive.tfljamcams.net/archive/Woolwich_Manor_Way/,51.5205,0.05882
Westhorn Av E of Burnt Ash Hill,26.00,http://archive.tfljamcams.net/archive/Westhorn_Av_E_of_Burnt_Ash_Hill/,51.4463,0.01508
Westminster Bridge Rd Waterloo Rd,26.00,http://archive.tfljamcams.net/archive/Westminster_Bridge_Rd_Waterloo_Rd/,51.4986,-0.10545
Westfield Ave International Way Car Park A,26.00,http://archive.tfljamcams.net/archive/Westfield_Ave_International_Way_Car_Park_A/,51.5435,-0.01109
Whitechapel High St Mansell St,26.00,http://archive.tfljamcams.net/archive/Whitechapel_High_St_Mansell_St/,51.5144,-0.07411
Western Ave Swaklys RB,26.00,http://archive.tfljamcams.net/archive/Western_Ave_Swaklys_RB/,51.5591,-0.46984
West Hill Portinscale Rd,26.00,http://archive.tfljamcams.net/archive/West_Hill_Portinscale_Rd/,51.4549,-0.20828
Whitton Rd Chertsey Rd,26.00,http://archive.tfljamcams.net/archive/Whitton_Rd_Chertsey_Rd/,51.454,-0.3371
Wellington Rd St Johns Wd Rd,26.00,http://archive.tfljamcams.net/archive/Wellington_Rd_St_Johns_Wd_Rd/,51.53,-0.16889
Whitechapel Rd White Church Ln,26.00,http://archive.tfljamcams.net/archive/Whitechapel_Rd_White_Church_Ln/,51.5163,-0.06894
Wood Lane A40 Westway,26.00,http://archive.tfljamcams.net/archive/Wood_Lane_A40_Westway/,51.5149,-0.2263
Leman St   Prescot St,26.00,http://archive.tfljamcams.net/archive/Leman_St___Prescot_St/,51.512,-0.06927
Kingsland Rd Balls Pond Rd,26.00,http://archive.tfljamcams.net/archive/Kingsland_Rd_Balls_Pond_Rd/,51.5463,-0.07566
Lwr Mortlake Rd Manor Circus,26.00,http://archive.tfljamcams.net/archive/Lwr_Mortlake_Rd_Manor_Circus/,51.4677,-0.28769
Maida Vale St Johns Wood Rd,26.00,http://archive.tfljamcams.net/archive/Maida_Vale_St_Johns_Wood_Rd/,51.5258,-0.1783
Woodford Avenue - Beehive Lane,26.00,http://archive.tfljamcams.net/archive/Woodford_Avenue_-_Beehive_Lane/,51.5814,0.05825
Waterworks W B Off-Slip,26.00,http://archive.tfljamcams.net/archive/Waterworks_W_B_Off-Slip/,51.595,0.01478
Wennington Viaduct E,26.00,http://archive.tfljamcams.net/archive/Wennington_Viaduct_E/,51.5005,0.22112
Westminster Bridge   South,26.00,http://archive.tfljamcams.net/archive/Westminster_Bridge___South/,51.5012,-0.11583
Western Ave Alperton Lane,26.00,http://archive.tfljamcams.net/archive/Western_Ave_Alperton_Lane/,51.5322,-0.31016
Woolwich Rd Charlton Church Lane,26.00,http://archive.tfljamcams.net/archive/Woolwich_Rd_Charlton_Church_Lane/,51.4878,0.0311
Lodge Avenue,26.00,http://archive.tfljamcams.net/archive/Lodge_Avenue/,51.533,0.10988
Marylebone Rd York Gate,26.00,http://archive.tfljamcams.net/archive/Marylebone_Rd_York_Gate/,51.523,-0.15271
London Rd Arragon Rd,26.00,http://archive.tfljamcams.net/archive/London_Rd_Arragon_Rd/,51.4496,-0.33026
Holloway Rd Tufnell Pk Rd,26.00,http://archive.tfljamcams.net/archive/Holloway_Rd_Tufnell_Pk_Rd/,51.5584,-0.12005
A3 Hook Rise A243 Hook Rd,26.00,http://archive.tfljamcams.net/archive/A3_Hook_Rise_A243_Hook_Rd/,51.3752,-0.30359
A406 Pinkham Way Colney Hatch Ln,26.00,http://archive.tfljamcams.net/archive/A406_Pinkham_Way_Colney_Hatch_Ln/,51.6062,-0.15106
Tooting High St Garratt Terrace,26.00,http://archive.tfljamcams.net/archive/Tooting_High_St_Garratt_Terrace/,51.4276,-0.16862
York Road Leake Street,26.00,http://archive.tfljamcams.net/archive/York_Road_Leake_Street/,51.5024,-0.11633
Leatherhead Rd Fairoak Lane,26.00,http://archive.tfljamcams.net/archive/Leatherhead_Rd_Fairoak_Lane/,51.3419,-0.31786
MONUMENT WAY PARK VIEW ROAD,26.00,http://archive.tfljamcams.net/archive/MONUMENT_WAY_PARK_VIEW_ROAD/,51.5896,-0.0643
London Rd Wharfedale Gardens,26.00,http://archive.tfljamcams.net/archive/London_Rd_Wharfedale_Gardens/,51.4014,-0.11851
Grosvenor Pl Hyde Pk Cnr,26.00,http://archive.tfljamcams.net/archive/Grosvenor_Pl_Hyde_Pk_Cnr/,51.5018,-0.15163
Lewisham High St Rennell St,26.00,http://archive.tfljamcams.net/archive/Lewisham_High_St_Rennell_St/,51.4638,-0.01076
Lower Clapton Rd Rowhill Rd,26.00,http://archive.tfljamcams.net/archive/Lower_Clapton_Rd_Rowhill_Rd/,51.5541,-0.05403
Woodford Ave   Clayhall Ave,26.00,http://archive.tfljamcams.net/archive/Woodford_Ave___Clayhall_Ave/,51.5901,0.04919
Limehouse Tnl HH Westferry Rd Exit,26.00,http://archive.tfljamcams.net/archive/Limehouse_Tnl_HH_Westferry_Rd_Exit/,51.5079,-0.02752
Warwick Rd Earls Crt Station,26.00,http://archive.tfljamcams.net/archive/Warwick_Rd_Earls_Crt_Station/,51.4904,-0.19621
Leamouth Road,26.00,http://archive.tfljamcams.net/archive/Leamouth_Road/,51.5127,-0.00048
M11 A406 N Bnd 109A,26.00,http://archive.tfljamcams.net/archive/M11_A406_N_Bnd_109A/,51.5845,0.0397
Whitechapel Rd   Plumbers Row,26.00,http://archive.tfljamcams.net/archive/Whitechapel_Rd___Plumbers_Row/,51.5173,-0.06668
York Road opp Mepham St,26.00,http://archive.tfljamcams.net/archive/York_Road_opp_Mepham_St/,51.5043,-0.11464
Woolwich Rd Warspite Rd,26.00,http://archive.tfljamcams.net/archive/Woolwich_Rd_Warspite_Rd/,51.4925,0.0454
Kingsway High Holborn,26.00,http://archive.tfljamcams.net/archive/Kingsway_High_Holborn/,51.5177,-0.12056
Lower Rd Rotherhithe Old Rd,26.00,http://archive.tfljamcams.net/archive/Lower_Rd_Rotherhithe_Old_Rd/,51.4937,-0.04832
Lea Bridge Rd Markhouse Rd,26.00,http://archive.tfljamcams.net/archive/Lea_Bridge_Rd_Markhouse_Rd/,51.5702,-0.02527
Lewisham Way Florence Road,26.00,http://archive.tfljamcams.net/archive/Lewisham_Way_Florence_Road/,51.4722,-0.03114
Limehouse Tnl Westferry Rd Entr,26.00,http://archive.tfljamcams.net/archive/Limehouse_Tnl_Westferry_Rd_Entr/,51.5077,-0.02766
London Rd   Staines Av,26.00,http://archive.tfljamcams.net/archive/London_Rd___Staines_Av/,51.3768,-0.22177
Marsh Way,26.00,http://archive.tfljamcams.net/archive/Marsh_Way/,51.5205,0.16846
Twr Brdge Rd Grange Rd,26.00,http://archive.tfljamcams.net/archive/Twr_Brdge_Rd_Grange_Rd/,51.4968,-0.08187
Upper Richmond Rd Oxford Rd,26.00,http://archive.tfljamcams.net/archive/Upper_Richmond_Rd_Oxford_Rd/,51.4599,-0.21293
Lea Valley Cabinet Way,26.00,http://archive.tfljamcams.net/archive/Lea_Valley_Cabinet_Way/,51.6103,-0.03041
Tweedy Rd E of Sherman Rd,26.00,http://archive.tfljamcams.net/archive/Tweedy_Rd_E_of_Sherman_Rd/,51.4079,0.01713
Lower Thames St London Bridge,26.00,http://archive.tfljamcams.net/archive/Lower_Thames_St_London_Bridge/,51.5095,-0.08688
Upper Clapton Rd Rossington St,26.00,http://archive.tfljamcams.net/archive/Upper_Clapton_Rd_Rossington_St/,51.564,-0.05929
Limehouse Tnl Aspen Way,26.00,http://archive.tfljamcams.net/archive/Limehouse_Tnl_Aspen_Way/,51.5082,-0.02122
Leyton Rd Montfichet Rd Penny Brookes St,26.00,http://archive.tfljamcams.net/archive/Leyton_Rd_Montfichet_Rd_Penny_Brookes_St/,51.5466,-0.00091
Lee High Rd Old Rd,26.00,http://archive.tfljamcams.net/archive/Lee_High_Rd_Old_Rd/,51.4586,0.00287
Woolwich Rd Hatcliffe st,26.00,http://archive.tfljamcams.net/archive/Woolwich_Rd_Hatcliffe_st/,51.4862,0.00843
Wilton Road   Bridge Place,26.00,http://archive.tfljamcams.net/archive/Wilton_Road___Bridge_Place/,51.4944,-0.14217
Lwr Lea Crossing Blackwall Way,26.00,http://archive.tfljamcams.net/archive/Lwr_Lea_Crossing_Blackwall_Way/,51.5101,0.00205
Whitechapel Rd Court St,26.00,http://archive.tfljamcams.net/archive/Whitechapel_Rd_Court_St/,51.5187,-0.0611
Lr Clapton Rd Thislewaite Rd,26.00,http://archive.tfljamcams.net/archive/Lr_Clapton_Rd_Thislewaite_Rd/,51.557,-0.05594
Lewisham High St Courthill Rd,26.00,http://archive.tfljamcams.net/archive/Lewisham_High_St_Courthill_Rd/,51.4574,-0.01332
Lwr Clapton Powerscroft,26.00,http://archive.tfljamcams.net/archive/Lwr_Clapton_Powerscroft/,51.5526,-0.05272
Uxbridge Rd Askew Rd,26.00,http://archive.tfljamcams.net/archive/Uxbridge_Rd_Askew_Rd/,51.5067,-0.24443
Tweedy Rd N of Widmore Rd,26.00,http://archive.tfljamcams.net/archive/Tweedy_Rd_N_of_Widmore_Rd/,51.4066,0.01867
Twickenham Rd Heathcote Rd,26.00,http://archive.tfljamcams.net/archive/Twickenham_Rd_Heathcote_Rd/,51.4583,-0.31699
Addiscombe Rd Cherry Orchard Rd,26.00,http://archive.tfljamcams.net/archive/Addiscombe_Rd_Cherry_Orchard_Rd/,51.3753,-0.09123
Mile End Rd Globe Rd,26.00,http://archive.tfljamcams.net/archive/Mile_End_Rd_Globe_Rd/,51.5218,-0.04605
Montfichet Rd Westfield Ave Car Park B,26.00,http://archive.tfljamcams.net/archive/Montfichet_Rd_Westfield_Ave_Car_Park_B/,51.5411,-0.00528
Mare St Graham Rd,26.00,http://archive.tfljamcams.net/archive/Mare_St_Graham_Rd/,51.5466,-0.055
Kingsland Rd Hackney Rd,26.00,http://archive.tfljamcams.net/archive/Kingsland_Rd_Hackney_Rd/,51.5274,-0.07797
Marylebone Rd Great Portland Street,26.00,http://archive.tfljamcams.net/archive/Marylebone_Rd_Great_Portland_Street/,51.5239,-0.1445
Upper Richmond Rd Colinette Rd,26.00,http://archive.tfljamcams.net/archive/Upper_Richmond_Rd_Colinette_Rd/,51.4634,-0.22988
Lordship Ln Dulwich Cmn,26.00,http://archive.tfljamcams.net/archive/Lordship_Ln_Dulwich_Cmn/,51.4434,-0.06749
Tooting High St Selkirk Rd,26.00,http://archive.tfljamcams.net/archive/Tooting_High_St_Selkirk_Rd/,51.4291,-0.16703
Tunnel House (Fixed),26.00,http://archive.tfljamcams.net/archive/Tunnel_House_(Fixed)/,51.4967,0.00205
Tooley St Jamaica Rd,26.00,http://archive.tfljamcams.net/archive/Tooley_St_Jamaica_Rd/,51.5005,-0.07445
Trinity Road - Dorlcote Road,26.00,http://archive.tfljamcams.net/archive/Trinity_Road_-_Dorlcote_Road/,51.4503,-0.17405
A10 North of Lee Street,26.00,http://archive.tfljamcams.net/archive/A10_North_of_Lee_Street/,51.5386,-0.07685
Tooting Bec Rd   A24,26.00,http://archive.tfljamcams.net/archive/Tooting_Bec_Rd___A24/,51.4355,-0.15937
Tower Bridge Rd Rothsay St,26.00,http://archive.tfljamcams.net/archive/Tower_Bridge_Rd_Rothsay_St/,51.4961,-0.08297
Trinity Rd Bellevue Rd,26.00,http://archive.tfljamcams.net/archive/Trinity_Rd_Bellevue_Rd/,51.4441,-0.16815
Tottenham Broad Lane The Hale,26.00,http://archive.tfljamcams.net/archive/Tottenham_Broad_Lane_The_Hale/,51.5883,-0.06344
The Highway Glamis Road,26.00,http://archive.tfljamcams.net/archive/The_Highway_Glamis_Road/,51.5097,-0.05046
Shooters Hill Rd P o wales Rd,26.00,http://archive.tfljamcams.net/archive/Shooters_Hill_Rd_P_o_wales_Rd/,51.4735,0.01544
The Highway Vaughan Way,26.00,http://archive.tfljamcams.net/archive/The_Highway_Vaughan_Way/,51.509,-0.06754
Tooley St Abbots Lane,26.00,http://archive.tfljamcams.net/archive/Tooley_St_Abbots_Lane/,51.5039,-0.08136
Talgarth Rd Gliddon Rd,26.00,http://archive.tfljamcams.net/archive/Talgarth_Rd_Gliddon_Rd/,51.4907,-0.21425
Target Roundabout Church St,26.00,http://archive.tfljamcams.net/archive/Target_Roundabout_Church_St/,51.5425,-0.37841
The Causeway   Faggs Rd,26.00,http://archive.tfljamcams.net/archive/The_Causeway___Faggs_Rd/,51.4631,-0.41537
Lambeth Plc Rd Royal St,26.00,http://archive.tfljamcams.net/archive/Lambeth_Plc_Rd_Royal_St/,51.4985,-0.11747
Crown Lane Grasmere Avenue,26.00,http://archive.tfljamcams.net/archive/Crown_Lane_Grasmere_Avenue/,51.4018,-0.19698
Finchley High Rd A406,26.00,http://archive.tfljamcams.net/archive/Finchley_High_Rd_A406/,51.6013,-0.17396
Harrow Rd Westbourne Terrace,26.00,http://archive.tfljamcams.net/archive/Harrow_Rd_Westbourne_Terrace/,51.5198,-0.18509
Kew Bridge Northside,26.00,http://archive.tfljamcams.net/archive/Kew_Bridge_Northside/,51.4891,-0.28766
Charing Cross Rd Cranbourne St,26.00,http://archive.tfljamcams.net/archive/Charing_Cross_Rd_Cranbourne_St/,51.5113,-0.1283
Kings X Rd   Swinton St,26.00,http://archive.tfljamcams.net/archive/Kings_X_Rd___Swinton_St/,51.5294,-0.11572
A406 Angel Road East,26.00,http://archive.tfljamcams.net/archive/A406_Angel_Road_East/,51.6114,-0.04729
Kennington Pk Rd Braganza St,26.00,http://archive.tfljamcams.net/archive/Kennington_Pk_Rd_Braganza_St/,51.4868,-0.10738
Commercial Rd Gowers Walk,26.00,http://archive.tfljamcams.net/archive/Commercial_Rd_Gowers_Walk/,51.5149,-0.06808
A3 Clapham Rd Stockwell Rd Landsdowne Way,26.00,http://archive.tfljamcams.net/archive/A3_Clapham_Rd_Stockwell_Rd_Landsdowne_Way/,51.475,-0.11953
A23 Streatham H Rd Mitcham Ln,26.00,http://archive.tfljamcams.net/archive/A23_Streatham_H_Rd_Mitcham_Ln/,51.4293,-0.13101
A10 Grt Cambridge Rd A110 S bury Rd,26.00,http://archive.tfljamcams.net/archive/A10_Grt_Cambridge_Rd_A110_S_bury_Rd/,51.6496,-0.06039
A2 Black Prince,26.00,http://archive.tfljamcams.net/archive/A2_Black_Prince/,51.4482,0.15266
A13 Alfreds Way Movers Ln,26.00,http://archive.tfljamcams.net/archive/A13_Alfreds_Way_Movers_Ln/,51.5303,0.09318
A12 East Cross Route Benn St,26.00,http://archive.tfljamcams.net/archive/A12_East_Cross_Route_Benn_St/,51.5458,-0.03353
A205 Academy Rd Shooters Hill,26.00,http://archive.tfljamcams.net/archive/A205_Academy_Rd_Shooters_Hill/,51.4712,0.05519
A12 Eastern Ave Mawney Road,26.00,http://archive.tfljamcams.net/archive/A12_Eastern_Ave_Mawney_Road/,51.5814,0.16445
A12 Langthorne 3713A,26.00,http://archive.tfljamcams.net/archive/A12_Langthorne_3713A/,51.5579,-0.00433
A23 Brixton Hill Effra Rd,26.00,http://archive.tfljamcams.net/archive/A23_Brixton_Hill_Effra_Rd/,51.4606,-0.11628
A23 Brixton Rd Vassell Rd,26.00,http://archive.tfljamcams.net/archive/A23_Brixton_Rd_Vassell_Rd/,51.4765,-0.11232
A21 North of Lewisham Pk,26.00,http://archive.tfljamcams.net/archive/A21_North_of_Lewisham_Pk/,51.4528,-0.01641
A102 Brunswick Rd,26.00,http://archive.tfljamcams.net/archive/A102_Brunswick_Rd/,51.5133,-0.00809
A1 South of Muswell Hill,26.00,http://archive.tfljamcams.net/archive/A1_South_of_Muswell_Hill/,51.5773,-0.14662
A232   Sutton Court Road,26.00,http://archive.tfljamcams.net/archive/A232___Sutton_Court_Road/,51.3608,-0.18941
A1 Holders Hill,26.00,http://archive.tfljamcams.net/archive/A1_Holders_Hill/,51.5948,-0.21662
A3 Clapham High St Aristotle Rd,26.00,http://archive.tfljamcams.net/archive/A3_Clapham_High_St_Aristotle_Rd/,51.4644,-0.13143
A205   Catford Hill,26.00,http://archive.tfljamcams.net/archive/A205___Catford_Hill/,51.4432,-0.02857
A40  Argyle Rd,26.00,http://archive.tfljamcams.net/archive/A40__Argyle_Rd/,51.5339,-0.32963
Caledonian R Copnhagen S,26.00,http://archive.tfljamcams.net/archive/Caledonian_R_Copnhagen_S/,51.5369,-0.11649
A406 A124 Barking,26.00,http://archive.tfljamcams.net/archive/A406_A124_Barking/,51.538,0.06771
A23 Streatham H Rd Stanthorp Rd,26.00,http://archive.tfljamcams.net/archive/A23_Streatham_H_Rd_Stanthorp_Rd/,51.427,-0.13128
A406 A1 Falloden Way,26.00,http://archive.tfljamcams.net/archive/A406_A1_Falloden_Way/,51.5896,-0.19648
A2 Eltham West E B,26.00,http://archive.tfljamcams.net/archive/A2_Eltham_West_E_B/,51.4553,0.04847
Buck Palace Rd Eccleston Bridge,26.00,http://archive.tfljamcams.net/archive/Buck_Palace_Rd_Eccleston_Bridge/,51.4941,-0.14655
A23 Purley Cross A23 Foxley Lane,26.00,http://archive.tfljamcams.net/archive/A23_Purley_Cross_A23_Foxley_Lane/,51.3398,-0.11739
A3 Kingston Bypass College Gds,26.00,http://archive.tfljamcams.net/archive/A3_Kingston_Bypass_College_Gds/,51.3957,-0.24955
A205 Brownhill Rd Plassey Rd,26.00,http://archive.tfljamcams.net/archive/A205_Brownhill_Rd_Plassey_Rd/,51.4459,-0.01723
A12 Preston Drive,26.00,http://archive.tfljamcams.net/archive/A12_Preston_Drive/,51.5774,0.03599
Kew Rd Twickemham Rd,26.00,http://archive.tfljamcams.net/archive/Kew_Rd_Twickemham_Rd/,51.4647,-0.30039
A12 East Cross Route,26.00,http://archive.tfljamcams.net/archive/A12_East_Cross_Route/,51.5482,-0.02874
Crayford Rd Crayford Way,26.00,http://archive.tfljamcams.net/archive/Crayford_Rd_Crayford_Way/,51.4516,0.17875
A12 Cathall Rd 3775A,26.00,http://archive.tfljamcams.net/archive/A12_Cathall_Rd_3775A/,51.5619,0.00185
A10 Stoke Newington Rd Millers Terrace,26.00,http://archive.tfljamcams.net/archive/A10_Stoke_Newington_Rd_Millers_Terrace/,51.5512,-0.07501
A10 Kingsland Rd Stamford St,26.00,http://archive.tfljamcams.net/archive/A10_Kingsland_Rd_Stamford_St/,51.5444,-0.07616
Catford Hill Dogget Rd,26.00,http://archive.tfljamcams.net/archive/Catford_Hill_Dogget_Rd/,51.4446,-0.02393
A41 Finchley Rd 115 Swiss Cottage,26.00,http://archive.tfljamcams.net/archive/A41_Finchley_Rd_115_Swiss_Cottage/,51.5428,-0.17519
A12 Temple Mls 3672B,26.00,http://archive.tfljamcams.net/archive/A12_Temple_Mls_3672B/,51.5549,-0.00785
A3 Clapham Cmon Southside Long Rd,26.00,http://archive.tfljamcams.net/archive/A3_Clapham_Cmon_Southside_Long_Rd/,51.4609,-0.13953
A406 Billet Upass W,26.00,http://archive.tfljamcams.net/archive/A406_Billet_Upass_W/,51.601,-0.01695
A406 Abbey Road Underpass,26.00,http://archive.tfljamcams.net/archive/A406_Abbey_Road_Underpass/,51.5395,-0.27802
A102 Blackwall Lane,26.00,http://archive.tfljamcams.net/archive/A102_Blackwall_Lane/,51.4939,0.00646
Kingston-Tolworth Roundabout,26.00,http://archive.tfljamcams.net/archive/Kingston-Tolworth_Roundabout/,51.3794,-0.28063
C Browns E B Off-Slip,26.00,http://archive.tfljamcams.net/archive/C_Browns_E_B_Off-Slip/,51.5966,0.027
A23 Old Lodge Lane,26.00,http://archive.tfljamcams.net/archive/A23_Old_Lodge_Lane/,51.3318,-0.12475
A406 NCR Grt Central Way,26.00,http://archive.tfljamcams.net/archive/A406_NCR_Grt_Central_Way/,51.5527,-0.25521
Camberwell New Rd Foxley Rd,26.00,http://archive.tfljamcams.net/archive/Camberwell_New_Rd_Foxley_Rd/,51.4799,-0.10755
A232 Grove Rd Sutton Park Rd,26.00,http://archive.tfljamcams.net/archive/A232_Grove_Rd_Sutton_Park_Rd/,51.36,-0.19394
Finchley Rd Alvanley Grdns,26.00,http://archive.tfljamcams.net/archive/Finchley_Rd_Alvanley_Grdns/,51.5525,-0.18751
A3 Clapham Rd Crewdson Rd,26.00,http://archive.tfljamcams.net/archive/A3_Clapham_Rd_Crewdson_Rd/,51.4793,-0.11531
A21 Bromley Rd Callander Rd,26.00,http://archive.tfljamcams.net/archive/A21_Bromley_Rd_Callander_Rd/,51.435,-0.0178
Stoke Newington Rd Evering Rd,26.00,http://archive.tfljamcams.net/archive/Stoke_Newington_Rd_Evering_Rd/,51.5571,-0.07466
Goresbrook West,26.00,http://archive.tfljamcams.net/archive/Goresbrook_West/,51.5278,0.14206
Cromwell Rd Collingham Rd,26.00,http://archive.tfljamcams.net/archive/Cromwell_Rd_Collingham_Rd/,51.4946,-0.18878
Finchley Road Hendon Way,26.00,http://archive.tfljamcams.net/archive/Finchley_Road_Hendon_Way/,51.5593,-0.19686
A3220 Northern Roundabout,26.00,http://archive.tfljamcams.net/archive/A3220_Northern_Roundabout/,51.5154,-0.21693
A2 Danson,26.00,http://archive.tfljamcams.net/archive/A2_Danson/,51.4491,0.11974
A23 Purley Way Edgehill Rd,26.00,http://archive.tfljamcams.net/archive/A23_Purley_Way_Edgehill_Rd/,51.3456,-0.11434
A102 Bwall Tunnel Sth Appr,26.00,http://archive.tfljamcams.net/archive/A102_Bwall_Tunnel_Sth_Appr/,51.4857,0.01914
A2 Eltham East W B,26.00,http://archive.tfljamcams.net/archive/A2_Eltham_East_W_B/,51.4557,0.0572
A2 New Cross Rd Lewisham Way,26.00,http://archive.tfljamcams.net/archive/A2_New_Cross_Rd_Lewisham_Way/,51.4757,-0.03625
Stockwell Rd Stockwell Ln,26.00,http://archive.tfljamcams.net/archive/Stockwell_Rd_Stockwell_Ln/,51.4697,-0.12007
Edgware Rd Seymour St,26.00,http://archive.tfljamcams.net/archive/Edgware_Rd_Seymour_St/,51.5141,-0.16133
Brighton Road,26.00,http://archive.tfljamcams.net/archive/Brighton_Road/,51.3324,-0.12398
A4 Cromwell Rd Queens Gate,26.00,http://archive.tfljamcams.net/archive/A4_Cromwell_Rd_Queens_Gate/,51.4954,-0.17937
East India Dock Rd Upper Nth St,26.00,http://archive.tfljamcams.net/archive/East_India_Dock_Rd_Upper_Nth_St/,51.5109,-0.02134
Castle Green,26.00,http://archive.tfljamcams.net/archive/Castle_Green/,51.5317,0.12444
A2 New Cross Rd Besson St,26.00,http://archive.tfljamcams.net/archive/A2_New_Cross_Rd_Besson_St/,51.4753,-0.04715
Eastern Ave   Gallows Corner,26.00,http://archive.tfljamcams.net/archive/Eastern_Ave___Gallows_Corner/,51.5934,0.21576
Beckton West,26.00,http://archive.tfljamcams.net/archive/Beckton_West/,51.5224,0.06462
Shooters Hill Rd Charlton Way,26.00,http://archive.tfljamcams.net/archive/Shooters_Hill_Rd_Charlton_Way/,51.4719,0.00024
Burdett Rd Hamlets Way,26.00,http://archive.tfljamcams.net/archive/Burdett_Rd_Hamlets_Way/,51.523,-0.03434
Delamare Rd Broadway,26.00,http://archive.tfljamcams.net/archive/Delamare_Rd_Broadway/,51.5133,-0.3911
Airport Way Stanwellmore Rd,26.00,http://archive.tfljamcams.net/archive/Airport_Way_Stanwellmore_Rd/,51.463,-0.49324
Woolwich Rd A102 Flyover,26.00,http://archive.tfljamcams.net/archive/Woolwich_Rd_A102_Flyover/,51.4863,0.01695
Watford Way   Aerodrome Rd,26.00,http://archive.tfljamcams.net/archive/Watford_Way___Aerodrome_Rd/,51.5925,-0.23451
Limehouse Tnl East Portal E B,26.00,http://archive.tfljamcams.net/archive/Limehouse_Tnl_East_Portal_E_B/,51.5085,-0.0223
City Road Old Street,26.00,http://archive.tfljamcams.net/archive/City_Road_Old_Street/,51.5262,-0.08771
Battersea Brdg Rd Ethelburga St,26.00,http://archive.tfljamcams.net/archive/Battersea_Brdg_Rd_Ethelburga_St/,51.4768,-0.1684
Charing Cross Rd   Cambridge Circus,26.00,http://archive.tfljamcams.net/archive/Charing_Cross_Rd___Cambridge_Circus/,51.5131,-0.12914
Limehouse Tunnel Butcher Row,26.00,http://archive.tfljamcams.net/archive/Limehouse_Tunnel_Butcher_Row/,51.5106,-0.04182
Loampit Vale Thurston Rd,26.00,http://archive.tfljamcams.net/archive/Loampit_Vale_Thurston_Rd/,51.4645,-0.01522
London Rd Craignish Av,26.00,http://archive.tfljamcams.net/archive/London_Rd_Craignish_Av/,51.4085,-0.12186
London Rd Thomas Doyle St,26.00,http://archive.tfljamcams.net/archive/London_Rd_Thomas_Doyle_St/,51.498,-0.10376
Eltham Rd Leyland Rd,26.00,http://archive.tfljamcams.net/archive/Eltham_Rd_Leyland_Rd/,51.4559,0.01302
A501 West of Judd Street,26.00,http://archive.tfljamcams.net/archive/A501_West_of_Judd_Street/,51.5291,-0.12666
Battersea Rise Northcote Rd,26.00,http://archive.tfljamcams.net/archive/Battersea_Rise_Northcote_Rd/,51.4607,-0.16652
Camden Rd St Pancras Way,26.00,http://archive.tfljamcams.net/archive/Camden_Rd_St_Pancras_Way/,51.5427,-0.13744
Chiswick High Rd Goldhawk Rd,26.00,http://archive.tfljamcams.net/archive/Chiswick_High_Rd_Goldhawk_Rd/,51.4935,-0.24577
George St Wellesley Rd,26.00,http://archive.tfljamcams.net/archive/George_St_Wellesley_Rd/,51.3741,-0.09646
Hackney Rd Camb Heath Rd,26.00,http://archive.tfljamcams.net/archive/Hackney_Rd_Camb_Heath_Rd/,51.5326,-0.05702
Holloway Rd Nth Furlong Rd,26.00,http://archive.tfljamcams.net/archive/Holloway_Rd_Nth_Furlong_Rd/,51.5477,-0.106
John Wilson St New Ferry Approach,26.00,http://archive.tfljamcams.net/archive/John_Wilson_St_New_Ferry_Approach/,51.4935,0.06171
Exhibition Rd Cromwell Rd,26.00,http://archive.tfljamcams.net/archive/Exhibition_Rd_Cromwell_Rd/,51.4957,-0.17359
Heath Rd King St Parade,26.00,http://archive.tfljamcams.net/archive/Heath_Rd_King_St_Parade/,51.4456,-0.33001
Baylis Rd Westminster Bridge Rd,26.00,http://archive.tfljamcams.net/archive/Baylis_Rd_Westminster_Bridge_Rd/,51.4987,-0.11242
Grt Cambridge Rd Bury St,26.00,http://archive.tfljamcams.net/archive/Grt_Cambridge_Rd_Bury_St/,51.6341,-0.06968
A20 Lewisham Way Parkfield Rd,26.00,http://archive.tfljamcams.net/archive/A20_Lewisham_Way_Parkfield_Rd/,51.4745,-0.03458
Kennington Lane Newington Butts,26.00,http://archive.tfljamcams.net/archive/Kennington_Lane_Newington_Butts/,51.4914,-0.10283
A2 Kidbrooke Junction,26.00,http://archive.tfljamcams.net/archive/A2_Kidbrooke_Junction/,51.4642,0.0307
A12 GGT W Appr 4002A,26.00,http://archive.tfljamcams.net/archive/A12_GGT_W_Appr_4002A/,51.5739,0.02384
A205 Poynders Rd Kings Ave,26.00,http://archive.tfljamcams.net/archive/A205_Poynders_Rd_Kings_Ave/,51.4479,-0.13252
Eastbourne Te Bishops Bridge Rd,26.00,http://archive.tfljamcams.net/archive/Eastbourne_Te_Bishops_Bridge_Rd/,51.5179,-0.18026
A12 Wansbeck Road,26.00,http://archive.tfljamcams.net/archive/A12_Wansbeck_Road/,51.5418,-0.02692
Finchley Rd Sth of Hillgrove Rd,26.00,http://archive.tfljamcams.net/archive/Finchley_Rd_Sth_of_Hillgrove_Rd/,51.5414,-0.17552
Elephant & Castle New Kent Rd,26.00,http://archive.tfljamcams.net/archive/Elephant_&_Castle_New_Kent_Rd/,51.495,-0.1003
East India Dock Rd Amoy Pl,26.00,http://archive.tfljamcams.net/archive/East_India_Dock_Rd_Amoy_Pl/,51.5117,-0.02756
Bruce Grove,26.00,http://archive.tfljamcams.net/archive/Bruce_Grove/,51.594,-0.06943
Hanger Lane Queens Parade,26.00,http://archive.tfljamcams.net/archive/Hanger_Lane_Queens_Parade/,51.5169,-0.2912
A406 Staples Corner Approach,26.00,http://archive.tfljamcams.net/archive/A406_Staples_Corner_Approach/,51.5701,-0.2373
Chalkers Corner,26.00,http://archive.tfljamcams.net/archive/Chalkers_Corner/,51.469,-0.27703
A205 Upper RMond Rd Sheen Lane,26.00,http://archive.tfljamcams.net/archive/A205_Upper_RMond_Rd_Sheen_Lane/,51.4647,-0.26725
East India Dock Rd Chrisp St,26.00,http://archive.tfljamcams.net/archive/East_India_Dock_Rd_Chrisp_St/,51.5112,-0.01399
Finchley Rd Frognal Ct,26.00,http://archive.tfljamcams.net/archive/Finchley_Rd_Frognal_Ct/,51.5484,-0.18096
A4 Cromwell Rd Gloucester Rd,26.00,http://archive.tfljamcams.net/archive/A4_Cromwell_Rd_Gloucester_Rd/,51.4951,-0.18254
Balham High Rd Drakefield Rd,26.00,http://archive.tfljamcams.net/archive/Balham_High_Rd_Drakefield_Rd/,51.4372,-0.15762
Commercial Rd Albert Gardens,26.00,http://archive.tfljamcams.net/archive/Commercial_Rd_Albert_Gardens/,51.5133,-0.04692
Christchurch Rd Colliers Wood,26.00,http://archive.tfljamcams.net/archive/Christchurch_Rd_Colliers_Wood/,51.4173,-0.17788
Battersea Park Rd Forfar Rd,26.00,http://archive.tfljamcams.net/archive/Battersea_Park_Rd_Forfar_Rd/,51.4747,-0.15454
Kennington Pk Rd Penton Pl,26.00,http://archive.tfljamcams.net/archive/Kennington_Pk_Rd_Penton_Pl/,51.4902,-0.10411
Battersea Pk Rd Albert Bridge,26.00,http://archive.tfljamcams.net/archive/Battersea_Pk_Rd_Albert_Bridge/,51.4728,-0.16235
Commercial St Brushfield,26.00,http://archive.tfljamcams.net/archive/Commercial_St_Brushfield/,51.5192,-0.07464
Balham Hill Hazelbourne Road,26.00,http://archive.tfljamcams.net/archive/Balham_Hill_Hazelbourne_Road/,51.452,-0.14787
Commercial Rd Jubilee St,26.00,http://archive.tfljamcams.net/archive/Commercial_Rd_Jubilee_St/,51.514,-0.05251
Hendon Way   Ridge Hill,26.00,http://archive.tfljamcams.net/archive/Hendon_Way___Ridge_Hill/,51.5702,-0.20871
Harrow Rd Kilburn Lane,26.00,http://archive.tfljamcams.net/archive/Harrow_Rd_Kilburn_Lane/,51.5279,-0.2158
C Browns M11 Split,26.00,http://archive.tfljamcams.net/archive/C_Browns_M11_Split/,51.5961,0.03004
Kennington Pk Rd Kennington Rd,26.00,http://archive.tfljamcams.net/archive/Kennington_Pk_Rd_Kennington_Rd/,51.485,-0.1092
Baring Rd Le May Avenue,26.00,http://archive.tfljamcams.net/archive/Baring_Rd_Le_May_Avenue/,51.4322,0.02139
Camberwell Rd Albany Rd,26.00,http://archive.tfljamcams.net/archive/Camberwell_Rd_Albany_Rd/,51.4824,-0.0946
Battersea Pk Rd Queenstown Rd,26.00,http://archive.tfljamcams.net/archive/Battersea_Pk_Rd_Queenstown_Rd/,51.4762,-0.14847
CHARLIE BROWNS ROUNDABOUT,26.00,http://archive.tfljamcams.net/archive/CHARLIE_BROWNS_ROUNDABOUT/,51.5931,0.03633
Balls Pond Rd Henshall St,26.00,http://archive.tfljamcams.net/archive/Balls_Pond_Rd_Henshall_St/,51.5465,-0.08591
Bow Rd Flyover,26.00,http://archive.tfljamcams.net/archive/Bow_Rd_Flyover/,51.5296,-0.0142
Chelsea Bridge Chelsea Embankment,26.00,http://archive.tfljamcams.net/archive/Chelsea_Bridge_Chelsea_Embankment/,51.4858,-0.14971
Balham Hill Yukon Rd,26.00,http://archive.tfljamcams.net/archive/Balham_Hill_Yukon_Rd/,51.4491,-0.1479
Borough High St Grt Dover St,26.00,http://archive.tfljamcams.net/archive/Borough_High_St_Grt_Dover_St/,51.5011,-0.09317
Camberwell Ch St Camberwell Grn,26.00,http://archive.tfljamcams.net/archive/Camberwell_Ch_St_Camberwell_Grn/,51.4742,-0.09223
Battersea Bridge Cheyne Wk,26.00,http://archive.tfljamcams.net/archive/Battersea_Bridge_Cheyne_Wk/,51.4821,-0.17321
Barking Rd Green St,26.00,http://archive.tfljamcams.net/archive/Barking_Rd_Green_St/,51.5303,0.03772
Armoury Wy Wandsworth Plain,26.00,http://archive.tfljamcams.net/archive/Armoury_Wy_Wandsworth_Plain/,51.4586,-0.19554
Commercial St N of Pomell Way,26.00,http://archive.tfljamcams.net/archive/Commercial_St_N_of_Pomell_Way/,51.5162,-0.0727
Burdett Rd Ackroyd Drive,26.00,http://archive.tfljamcams.net/archive/Burdett_Rd_Ackroyd_Drive/,51.5181,-0.03008
Balham High Rd Balham Pk Rd,26.00,http://archive.tfljamcams.net/archive/Balham_High_Rd_Balham_Pk_Rd/,51.4422,-0.15409
Battersea Rise Bolingbrooke Gr,26.00,http://archive.tfljamcams.net/archive/Battersea_Rise_Bolingbrooke_Gr/,51.4598,-0.17159
Bath Rd   Oxford Ave,26.00,http://archive.tfljamcams.net/archive/Bath_Rd___Oxford_Ave/,51.4807,-0.42447
Camberwell Ch St Vicarage Grve,26.00,http://archive.tfljamcams.net/archive/Camberwell_Ch_St_Vicarage_Grve/,51.4734,-0.08757
Albert Emb Lambeth Brdge,26.00,http://archive.tfljamcams.net/archive/Albert_Emb_Lambeth_Brdge/,51.4937,-0.1214
Hammersmith Bridge Rd,26.00,http://archive.tfljamcams.net/archive/Hammersmith_Bridge_Rd/,51.4913,-0.22749
A4 Great West Rd A3063 Sutton Ln,26.00,http://archive.tfljamcams.net/archive/A4_Great_West_Rd_A3063_Sutton_Ln/,51.4781,-0.37244
Graham Rd Dalston Lane,26.00,http://archive.tfljamcams.net/archive/Graham_Rd_Dalston_Lane/,51.5462,-0.06941
H.Stead Rd Cardington St,26.00,http://archive.tfljamcams.net/archive/H.Stead_Rd_Cardington_St/,51.5294,-0.13854
A12 Wick Road,26.00,http://archive.tfljamcams.net/archive/A12_Wick_Road/,51.5448,-0.03214
A406 Hale End Rd W,26.00,http://archive.tfljamcams.net/archive/A406_Hale_End_Rd_W/,51.6005,-0.00395
Holloway Rd Sth Hargrave Rd,26.00,http://archive.tfljamcams.net/archive/Holloway_Rd_Sth_Hargrave_Rd/,51.5646,-0.13214
Christchurch Rd Streatham Hill,26.00,http://archive.tfljamcams.net/archive/Christchurch_Rd_Streatham_Hill/,51.4451,-0.1242
Commercial Rd New Rd,26.00,http://archive.tfljamcams.net/archive/Commercial_Rd_New_Rd/,51.5148,-0.06229
Baker St Marylebone Rd,26.00,http://archive.tfljamcams.net/archive/Baker_St_Marylebone_Rd/,51.5222,-0.15768
Great Chertsey Rd Hartington Rd,26.00,http://archive.tfljamcams.net/archive/Great_Chertsey_Rd_Hartington_Rd/,51.4746,-0.26731
Camberwell New Rd Lotian Rd,26.00,http://archive.tfljamcams.net/archive/Camberwell_New_Rd_Lotian_Rd/,51.4772,-0.10062
Holloway Rd Nth Rupert Rd,26.00,http://archive.tfljamcams.net/archive/Holloway_Rd_Nth_Rupert_Rd/,51.5628,-0.12724
Camberwell New Rd Vassall Rd,26.00,http://archive.tfljamcams.net/archive/Camberwell_New_Rd_Vassall_Rd/,51.4784,-0.10381
Fulham Rd Redcliffe Gardens,26.00,http://archive.tfljamcams.net/archive/Fulham_Rd_Redcliffe_Gardens/,51.4842,-0.18431
Gunnersbury Ave Gunnersbury Drive,26.00,http://archive.tfljamcams.net/archive/Gunnersbury_Ave_Gunnersbury_Drive/,51.5033,-0.28891
Gates Br Waterworks E,26.00,http://archive.tfljamcams.net/archive/Gates_Br_Waterworks_E/,51.5964,0.0227
Brixton Hill   Elm Park,26.00,http://archive.tfljamcams.net/archive/Brixton_Hill___Elm_Park/,51.4517,-0.12151
EIDT West Ramp Gantry,26.00,http://archive.tfljamcams.net/archive/EIDT_West_Ramp_Gantry/,51.5098,-0.00254
Kennington Ln Vauxhall St,26.00,http://archive.tfljamcams.net/archive/Kennington_Ln_Vauxhall_St/,51.4868,-0.11677
Holloway Rd Nth Tollington Rd,26.00,http://archive.tfljamcams.net/archive/Holloway_Rd_Nth_Tollington_Rd/,51.5562,-0.11695
Euston Rd Grays Inn Rd,26.00,http://archive.tfljamcams.net/archive/Euston_Rd_Grays_Inn_Rd/,51.5308,-0.12265
Eltham Rd Sidcup Rd,26.00,http://archive.tfljamcams.net/archive/Eltham_Rd_Sidcup_Rd/,51.4532,0.02756
A41 Finchley Rd Queen Grove,26.00,http://archive.tfljamcams.net/archive/A41_Finchley_Rd_Queen_Grove/,51.5369,-0.17615
Gnor Gdns Buckingham Palace Rd,26.00,http://archive.tfljamcams.net/archive/Gnor_Gdns_Buckingham_Palace_Rd/,51.497,-0.14555
High Rd Ruckholt Rd,26.00,http://archive.tfljamcams.net/archive/High_Rd_Ruckholt_Rd/,51.5584,-0.00707
Edgware Road   Praed Street,26.00,http://archive.tfljamcams.net/archive/Edgware_Road___Praed_Street/,51.5193,-0.16915
Grt Central Way Drury Way,26.00,http://archive.tfljamcams.net/archive/Grt_Central_Way_Drury_Way/,51.5547,-0.25591
Harrow Rd Lord Hills Bridge,26.00,http://archive.tfljamcams.net/archive/Harrow_Rd_Lord_Hills_Bridge/,51.5196,-0.18874
Hanger Lane,26.00,http://archive.tfljamcams.net/archive/Hanger_Lane/,51.5317,-0.29256
Commercial Rd Belgrave St,26.00,http://archive.tfljamcams.net/archive/Commercial_Rd_Belgrave_St/,51.513,-0.04164
Camden High St Mary Tce,26.00,http://archive.tfljamcams.net/archive/Camden_High_St_Mary_Tce/,51.5367,-0.14074
Blackfriars Rd St George,26.00,http://archive.tfljamcams.net/archive/Blackfriars_Rd_St_George/,51.499,-0.10493
Elephant & Castle Walworth Road,26.00,http://archive.tfljamcams.net/archive/Elephant_&_Castle_Walworth_Road/,51.4934,-0.1005
Evelyn Street   Bestwood St,26.00,http://archive.tfljamcams.net/archive/Evelyn_Street___Bestwood_St/,51.49,-0.04228
Finchley Rd Sth of Rosemont Rd,26.00,http://archive.tfljamcams.net/archive/Finchley_Rd_Sth_of_Rosemont_Rd/,51.5493,-0.18171
Albert Emb Glasshouse Wk,26.00,http://archive.tfljamcams.net/archive/Albert_Emb_Glasshouse_Wk/,51.4889,-0.12294
Curtain Rd   Old Street,26.00,http://archive.tfljamcams.net/archive/Curtain_Rd___Old_Street/,51.527,-0.08051
Balham High Rd Chestnut Grove,26.00,http://archive.tfljamcams.net/archive/Balham_High_Rd_Chestnut_Grove/,51.4436,-0.1526
Euston Rd Tottenham Court Rd,26.00,http://archive.tfljamcams.net/archive/Euston_Rd_Tottenham_Court_Rd/,51.5249,-0.13841
Goodmans Yard  Mansell Street,26.00,http://archive.tfljamcams.net/archive/Goodmans_Yard__Mansell_Street/,51.5112,-0.07301
Brixton Hill Morrish Rd,26.00,http://archive.tfljamcams.net/archive/Brixton_Hill_Morrish_Rd/,51.4462,-0.12421
Blackfriars Rd Dolben St,26.00,http://archive.tfljamcams.net/archive/Blackfriars_Rd_Dolben_St/,51.5049,-0.10466
Fulham Palace Rd(Coroners Crt),26.00,http://archive.tfljamcams.net/archive/Fulham_Palace_Rd(Coroners_Crt)/,51.4901,-0.22326
High St Colliers Wd Marlborough Rd,26.00,http://archive.tfljamcams.net/archive/High_St_Colliers_Wd_Marlborough_Rd/,51.4205,-0.17578
Camden Rd Camden St Lyme St,26.00,http://archive.tfljamcams.net/archive/Camden_Rd_Camden_St_Lyme_St/,51.5406,-0.13953
Finchley Road Canfield Place,26.00,http://archive.tfljamcams.net/archive/Finchley_Road_Canfield_Place/,51.5455,-0.17752
Clapton Common Lewstone Place,26.00,http://archive.tfljamcams.net/archive/Clapton_Common_Lewstone_Place/,51.5729,-0.07074
Hospital Bridge Rd,26.00,http://archive.tfljamcams.net/archive/Hospital_Bridge_Rd/,51.4422,-0.3654
H.Stead Rd Drummond St,26.00,http://archive.tfljamcams.net/archive/H.Stead_Rd_Drummond_St/,51.5267,-0.13851
Bowes Rd Brownlow Rd,26.00,http://archive.tfljamcams.net/archive/Bowes_Rd_Brownlow_Rd/,51.6127,-0.12115
Holloway Rd S of Hornsey Rd,26.00,http://archive.tfljamcams.net/archive/Holloway_Rd_S_of_Hornsey_Rd/,51.5524,-0.1119
Burdett Rd Eric St,26.00,http://archive.tfljamcams.net/archive/Burdett_Rd_Eric_St/,51.5208,-0.03276
Blackfriars Rd Pocock St,26.00,http://archive.tfljamcams.net/archive/Blackfriars_Rd_Pocock_St/,51.5018,-0.10451
Blackheath Rd Wickes Store,26.00,http://archive.tfljamcams.net/archive/Blackheath_Rd_Wickes_Store/,51.473,-0.01659
Baker St S of Park Rd,26.00,http://archive.tfljamcams.net/archive/Baker_St_S_of_Park_Rd/,51.5236,-0.15811
Finchley Rd Langland Grdns,26.00,http://archive.tfljamcams.net/archive/Finchley_Rd_Langland_Grdns/,51.5514,-0.1848
Camden Rd Hillmarton Rd,26.00,http://archive.tfljamcams.net/archive/Camden_Rd_Hillmarton_Rd/,51.5533,-0.12327
Croydon Flyover Fell Rd,26.00,http://archive.tfljamcams.net/archive/Croydon_Flyover_Fell_Rd/,51.3708,-0.0973
High St Sherwood Way W Wickham,26.00,http://archive.tfljamcams.net/archive/High_St_Sherwood_Way_W_Wickham/,51.3762,-0.01769
Jamaica Rd W of West Ln,26.00,http://archive.tfljamcams.net/archive/Jamaica_Rd_W_of_West_Ln/,51.4986,-0.0611
Earls Crt Rd Earls Crt Station,26.00,http://archive.tfljamcams.net/archive/Earls_Crt_Rd_Earls_Crt_Station/,51.4921,-0.19266
Brixton Rd Stockwell Pk,26.00,http://archive.tfljamcams.net/archive/Brixton_Rd_Stockwell_Pk/,51.466,-0.11345
Archway Rd Gladsmuir Rd,26.00,http://archive.tfljamcams.net/archive/Archway_Rd_Gladsmuir_Rd/,51.5686,-0.13639
Finchley Rd Goldhurst Terrace,26.00,http://archive.tfljamcams.net/archive/Finchley_Rd_Goldhurst_Terrace/,51.5463,-0.1792
Burdett Rd Pixley St,26.00,http://archive.tfljamcams.net/archive/Burdett_Rd_Pixley_St/,51.5143,-0.02834
Grt Cambridge Rd Bullsmore Ln,26.00,http://archive.tfljamcams.net/archive/Grt_Cambridge_Rd_Bullsmore_Ln/,51.6799,-0.05135
Hendon Way Queens Road,26.00,http://archive.tfljamcams.net/archive/Hendon_Way_Queens_Road/,51.5826,-0.22677
Balham High Rd Caistor Rd,26.00,http://archive.tfljamcams.net/archive/Balham_High_Rd_Caistor_Rd/,51.4468,-0.14943
Herne Hill Norwood Rd,26.00,http://archive.tfljamcams.net/archive/Herne_Hill_Norwood_Rd/,51.4522,-0.10134
Albert Emb Tinworth St,26.00,http://archive.tfljamcams.net/archive/Albert_Emb_Tinworth_St/,51.4902,-0.12259
Haymarket Pall Mall,26.00,http://archive.tfljamcams.net/archive/Haymarket_Pall_Mall/,51.5078,-0.13134
Great Eastern Rd Angel Lane Bridge,26.00,http://archive.tfljamcams.net/archive/Great_Eastern_Rd_Angel_Lane_Bridge/,51.5443,0.00026
Deptford Broadway Deptford Ch St,26.00,http://archive.tfljamcams.net/archive/Deptford_Broadway_Deptford_Ch_St/,51.4747,-0.02422
Edgware Rd S of Upper Berkeley St,26.00,http://archive.tfljamcams.net/archive/Edgware_Rd_S_of_Upper_Berkeley_St/,51.5148,-0.16237
Bayswater Rd Lancaster Terrace,26.00,http://archive.tfljamcams.net/archive/Bayswater_Rd_Lancaster_Terrace/,51.5116,-0.17596
City Road w of Bath St,26.00,http://archive.tfljamcams.net/archive/City_Road_w_of_Bath_St/,51.5282,-0.09177
Denmark Hill Love Walk,26.00,http://archive.tfljamcams.net/archive/Denmark_Hill_Love_Walk/,51.4712,-0.09306
Fore St East Ramp,26.00,http://archive.tfljamcams.net/archive/Fore_St_East_Ramp/,51.6143,-0.06135
A102 Woolwich Rd (N),26.00,http://archive.tfljamcams.net/archive/A102_Woolwich_Rd_(N)/,51.4886,0.01447
A21 Rushey Grn Ringstead Rd,26.00,http://archive.tfljamcams.net/archive/A21_Rushey_Grn_Ringstead_Rd/,51.4469,-0.01896
A12 Madeira Rd 3815A,26.00,http://archive.tfljamcams.net/archive/A12_Madeira_Rd_3815A/,51.5648,0.0052
A13 Burdett Rd,26.00,http://archive.tfljamcams.net/archive/A13_Burdett_Rd/,51.5119,-0.02849
DURSLEY ROAD,26.00,http://archive.tfljamcams.net/archive/DURSLEY_ROAD/,51.4681,0.02913
A107 Upper Clapton Rd Southwold Rd,26.00,http://archive.tfljamcams.net/archive/A107_Upper_Clapton_Rd_Southwold_Rd/,51.5619,-0.05748
Stamford St Broadwall,26.00,http://archive.tfljamcams.net/archive/Stamford_St_Broadwall/,51.5069,-0.10845
A4 Great West Rd Sutton Crt Rd,26.00,http://archive.tfljamcams.net/archive/A4_Great_West_Rd_Sutton_Crt_Rd/,51.4875,-0.26709
A102 Tunnel House S,26.00,http://archive.tfljamcams.net/archive/A102_Tunnel_House_S/,51.4965,0.00205
A12 Colville R 3732A,26.00,http://archive.tfljamcams.net/archive/A12_Colville_R_3732A/,51.559,-0.00218
A40 Marbone Rd Old Marbone Rd,26.00,http://archive.tfljamcams.net/archive/A40_Marbone_Rd_Old_Marbone_Rd/,51.5207,-0.16483
A20 Lee High Rd Belmont Park,26.00,http://archive.tfljamcams.net/archive/A20_Lee_High_Rd_Belmont_Park/,51.4598,-0.00401
Stockwell Rd By Clapham Rd,26.00,http://archive.tfljamcams.net/archive/Stockwell_Rd_By_Clapham_Rd/,51.472,-0.12219
The Broadway St.Georges Av,26.00,http://archive.tfljamcams.net/archive/The_Broadway_St.Georges_Av/,51.5115,-0.37768
Thornton Rd Broughton Rd,26.00,http://archive.tfljamcams.net/archive/Thornton_Rd_Broughton_Rd/,51.3916,-0.11798
A1 A504 Finchley Lane,26.00,http://archive.tfljamcams.net/archive/A1_A504_Finchley_Lane/,51.591,-0.21176
A5 Edgware Rd Broadley St,26.00,http://archive.tfljamcams.net/archive/A5_Edgware_Rd_Broadley_St/,51.5213,-0.17168
A3 Clapham Rd Elias Place,26.00,http://archive.tfljamcams.net/archive/A3_Clapham_Rd_Elias_Place/,51.4808,-0.11356
A40 Horn Ln Gypsy Crn,26.00,http://archive.tfljamcams.net/archive/A40_Horn_Ln_Gypsy_Crn/,51.522,-0.26373
Sterling Way Slip A1010 Fore St,26.00,http://archive.tfljamcams.net/archive/Sterling_Way_Slip_A1010_Fore_St/,51.6148,-0.06419
Stafford Rd Epsom Rd,26.00,http://archive.tfljamcams.net/archive/Stafford_Rd_Epsom_Rd/,51.3672,-0.11608
A205 Tulse Hill  Thurlow Park Rd,26.00,http://archive.tfljamcams.net/archive/A205_Tulse_Hill__Thurlow_Park_Rd/,51.441,-0.10633
A4 west of Sipson Road,26.00,http://archive.tfljamcams.net/archive/A4_west_of_Sipson_Road/,51.4814,-0.451
A205 Upper Rmond Rd Carlton Rd,26.00,http://archive.tfljamcams.net/archive/A205_Upper_Rmond_Rd_Carlton_Rd/,51.4643,-0.2734
A10 Stamford Hill Lampard Grove,26.00,http://archive.tfljamcams.net/archive/A10_Stamford_Hill_Lampard_Grove/,51.5669,-0.07286
A10 North of Walford Rd,26.00,http://archive.tfljamcams.net/archive/A10_North_of_Walford_Rd/,51.5559,-0.07467
A20 Sidcup Bypass Sevenoaks Way,26.00,http://archive.tfljamcams.net/archive/A20_Sidcup_Bypass_Sevenoaks_Way/,51.4135,0.11223
A200 Jamaica Road,26.00,http://archive.tfljamcams.net/archive/A200_Jamaica_Road/,51.4991,-0.0561
A406 WATERWORKS RDB,26.00,http://archive.tfljamcams.net/archive/A406_WATERWORKS_RDB/,51.5952,0.01072
A23 Brixton Rd Stockwell Rd,26.00,http://archive.tfljamcams.net/archive/A23_Brixton_Rd_Stockwell_Rd/,51.4653,-0.11407
A406 Iveagh Ave,26.00,http://archive.tfljamcams.net/archive/A406_Iveagh_Ave/,51.5378,-0.28341
A312 Parkway M4 J3,26.00,http://archive.tfljamcams.net/archive/A312_Parkway_M4_J3/,51.4929,-0.4103
A23 Streatham H Barrhill Rd,26.00,http://archive.tfljamcams.net/archive/A23_Streatham_H_Barrhill_Rd/,51.4403,-0.12581
A406 A10 U Pass East,26.00,http://archive.tfljamcams.net/archive/A406_A10_U_Pass_East/,51.6159,-0.08272
A3 West Hill Up Richmond Rd,26.00,http://archive.tfljamcams.net/archive/A3_West_Hill_Up_Richmond_Rd/,51.4567,-0.2024
Borough High St Southwark St,26.00,http://archive.tfljamcams.net/archive/Borough_High_St_Southwark_St/,51.5048,-0.09008
Brompton Rd,26.00,http://archive.tfljamcams.net/archive/Brompton_Rd/,51.5008,-0.16227
A2 New Cross Rd Florence Rd,26.00,http://archive.tfljamcams.net/archive/A2_New_Cross_Rd_Florence_Rd/,51.4754,-0.02898
A501 W of Park Sq East,26.00,http://archive.tfljamcams.net/archive/A501_W_of_Park_Sq_East/,51.524,-0.14568
A3220 West Cross Route,26.00,http://archive.tfljamcams.net/archive/A3220_West_Cross_Route/,51.5115,-0.21993
A1 Barnet Wy A41 Edgware Wy,26.00,http://archive.tfljamcams.net/archive/A1_Barnet_Wy_A41_Edgware_Wy/,51.6218,-0.25478
Bow Rd Alfred St,26.00,http://archive.tfljamcams.net/archive/Bow_Rd_Alfred_St/,51.5271,-0.0255
A4 Great W Rd Macbeth St,26.00,http://archive.tfljamcams.net/archive/A4_Great_W_Rd_Macbeth_St/,51.4909,-0.23286
Burdett Rd Mile End Rd,26.00,http://archive.tfljamcams.net/archive/Burdett_Rd_Mile_End_Rd/,51.5246,-0.03482
Clockhouse Lane Staines Rd,26.00,http://archive.tfljamcams.net/archive/Clockhouse_Lane_Staines_Rd/,51.4486,-0.44746
A504 Est End Rd A406 Nth Circ Rd,26.00,http://archive.tfljamcams.net/archive/A504_Est_End_Rd_A406_Nth_Circ_Rd/,51.5939,-0.18521
A3 Clapham Rd Caldwell St,26.00,http://archive.tfljamcams.net/archive/A3_Clapham_Rd_Caldwell_St/,51.4777,-0.11667
A40 Western Ave West End Rd,26.00,http://archive.tfljamcams.net/archive/A40_Western_Ave_West_End_Rd/,51.5487,-0.399
City Rd Shepherdess Walk,26.00,http://archive.tfljamcams.net/archive/City_Rd_Shepherdess_Walk/,51.5285,-0.09239
Commercial Rd Dean Cross St,26.00,http://archive.tfljamcams.net/archive/Commercial_Rd_Dean_Cross_St/,51.5143,-0.05451
A12 Carradale House,26.00,http://archive.tfljamcams.net/archive/A12_Carradale_House/,51.5148,-0.00869
A2 Glenesk Rochester,26.00,http://archive.tfljamcams.net/archive/A2_Glenesk_Rochester/,51.4571,0.06597
A406 Bowes Rd Green Lanes,26.00,http://archive.tfljamcams.net/archive/A406_Bowes_Rd_Green_Lanes/,51.6124,-0.10987
Denmark Hill Champion Pk,26.00,http://archive.tfljamcams.net/archive/Denmark_Hill_Champion_Pk/,51.4671,-0.09088
A40 Hanger Lane Tunnel,26.00,http://archive.tfljamcams.net/archive/A40_Hanger_Lane_Tunnel/,51.5302,-0.29492
A41 Sth of Fortune Grn Rd,26.00,http://archive.tfljamcams.net/archive/A41_Sth_of_Fortune_Grn_Rd/,51.5571,-0.19561
A10 North of Brooke Road,26.00,http://archive.tfljamcams.net/archive/A10_North_of_Brooke_Road/,51.5606,-0.07056
A3 Clapham Rd Lingham St,26.00,http://archive.tfljamcams.net/archive/A3_Clapham_Rd_Lingham_St/,51.4712,-0.12362
East Hill East Of Fairfield St,26.00,http://archive.tfljamcams.net/archive/East_Hill_East_Of_Fairfield_St/,51.4568,-0.18923
A20 Sidcup Rd County Gate,26.00,http://archive.tfljamcams.net/archive/A20_Sidcup_Rd_County_Gate/,51.432,0.07636
A23 Purley Way Queensway,26.00,http://archive.tfljamcams.net/archive/A23_Purley_Way_Queensway/,51.3603,-0.11737
Fulham BWay Wst of Harwood Rd,26.00,http://archive.tfljamcams.net/archive/Fulham_BWay_Wst_of_Harwood_Rd/,51.4802,-0.19601
Caledonian R Caledonia S,26.00,http://archive.tfljamcams.net/archive/Caledonian_R_Caledonia_S/,51.5318,-0.12093
A4202 Park Lane North Row,26.00,http://archive.tfljamcams.net/archive/A4202_Park_Lane_North_Row/,51.5127,-0.15787
Clapham Common Northside,26.00,http://archive.tfljamcams.net/archive/Clapham_Common_Northside/,51.4612,-0.16006
A2 Westhorne Avenue,26.00,http://archive.tfljamcams.net/archive/A2_Westhorne_Avenue/,51.4569,0.04229
Farringdon Rd opp Ray St,26.00,http://archive.tfljamcams.net/archive/Farringdon_Rd_opp_Ray_St/,51.5232,-0.10792
A2 Eltham West W B,26.00,http://archive.tfljamcams.net/archive/A2_Eltham_West_W_B/,51.455,0.04955
Clapham High St Venn St,26.00,http://archive.tfljamcams.net/archive/Clapham_High_St_Venn_St/,51.4623,-0.13729
Bromley Rd Oakridge Ln,26.00,http://archive.tfljamcams.net/archive/Bromley_Rd_Oakridge_Ln/,51.425,-0.00454
Colchester Rd Gubbins Ln,26.00,http://archive.tfljamcams.net/archive/Colchester_Rd_Gubbins_Ln/,51.598,0.23161
Goresbrook East,26.00,http://archive.tfljamcams.net/archive/Goresbrook_East/,51.5243,0.15119
A10   Downham Road,26.00,http://archive.tfljamcams.net/archive/A10___Downham_Road/,51.5391,-0.07662
Chelsea Embankment Royal Hosp Rd,26.00,http://archive.tfljamcams.net/archive/Chelsea_Embankment_Royal_Hosp_Rd/,51.4838,-0.16356
Holland Park Roundabout,26.00,http://archive.tfljamcams.net/archive/Holland_Park_Roundabout/,51.5041,-0.21833
A3 Kingston Bp Burlington Rd,26.00,http://archive.tfljamcams.net/archive/A3_Kingston_Bp_Burlington_Rd/,51.3996,-0.24355
Kidbrooke Park Rd,26.00,http://archive.tfljamcams.net/archive/Kidbrooke_Park_Rd/,51.4613,0.02625
Aspen Way Cotton Street,26.00,http://archive.tfljamcams.net/archive/Aspen_Way_Cotton_Street/,51.5072,-0.01003
Old Street e of Vince St,26.00,http://archive.tfljamcams.net/archive/Old_Street_e_of_Vince_St/,51.5262,-0.08563
Staples Corner - Rbt Southside,26.00,http://archive.tfljamcams.net/archive/Staples_Corner_-_Rbt_Southside/,51.5718,-0.22795
Fulham Palace Rd Lillie Rd,26.00,http://archive.tfljamcams.net/archive/Fulham_Palace_Rd_Lillie_Rd/,51.4837,-0.21956
A406 North Circular Rd Telford Rd Bounds Green Rd,26.00,http://archive.tfljamcams.net/archive/A406_North_Circular_Rd_Telford_Rd_Bounds_Green_Rd/,51.6112,-0.13544
Regent St Conduit St,26.00,http://archive.tfljamcams.net/archive/Regent_St_Conduit_St/,51.5132,-0.14091
A205 Christchurch Rd Norwood Rd,26.00,http://archive.tfljamcams.net/archive/A205_Christchurch_Rd_Norwood_Rd/,51.4401,-0.10643
A23 Purley Cross,26.00,http://archive.tfljamcams.net/archive/A23_Purley_Cross/,51.3381,-0.11724
A10 North of Evering Rd,26.00,http://archive.tfljamcams.net/archive/A10_North_of_Evering_Rd/,51.5583,-0.06936
A217   Rose Hill R.bout,26.00,http://archive.tfljamcams.net/archive/A217___Rose_Hill_R.bout/,51.3847,-0.18932
A12 Bromley-by-Bow,26.00,http://archive.tfljamcams.net/archive/A12_Bromley-by-Bow/,51.5256,-0.01169
Blackwall Nth Portal,26.00,http://archive.tfljamcams.net/archive/Blackwall_Nth_Portal/,51.5103,-0.00684
A23 Epsom Road,26.00,http://archive.tfljamcams.net/archive/A23_Epsom_Road/,51.3668,-0.11831
Camden High St Kentish Town Rd,26.00,http://archive.tfljamcams.net/archive/Camden_High_St_Kentish_Town_Rd/,51.5391,-0.14265
A40 Old Oak Road,26.00,http://archive.tfljamcams.net/archive/A40_Old_Oak_Road/,51.5137,-0.24893
Shaftesbury Ave High Holborn,26.00,http://archive.tfljamcams.net/archive/Shaftesbury_Ave_High_Holborn/,51.5157,-0.12612
Acre Lane Coldharbour Lane,26.00,http://archive.tfljamcams.net/archive/Acre_Lane_Coldharbour_Lane/,51.4614,-0.11563
A5 Edgware Rd Nutford Pl,26.00,http://archive.tfljamcams.net/archive/A5_Edgware_Rd_Nutford_Pl/,51.5165,-0.16495
A21 London Rd Tweedy Rd,26.00,http://archive.tfljamcams.net/archive/A21_London_Rd_Tweedy_Rd/,51.4089,0.01086
A24 South of Trevelyan Rd,26.00,http://archive.tfljamcams.net/archive/A24_South_of_Trevelyan_Rd/,51.424,-0.17185
Bressenden Place   Stag Place,26.00,http://archive.tfljamcams.net/archive/Bressenden_Place___Stag_Place/,51.4976,-0.14207
A2 New Cross Rd St James,26.00,http://archive.tfljamcams.net/archive/A2_New_Cross_Rd_St_James/,51.475,-0.03958
A12 GMT E Appr 3969L,26.00,http://archive.tfljamcams.net/archive/A12_GMT_E_Appr_3969L/,51.5719,0.0199
A312 south of Rosslyn Av,26.00,http://archive.tfljamcams.net/archive/A312_south_of_Rosslyn_Av/,51.4562,-0.40935
A24 Morden Rd Merantun Way,26.00,http://archive.tfljamcams.net/archive/A24_Morden_Rd_Merantun_Way/,51.4135,-0.19269
A21 South of Ladywell Rd,26.00,http://archive.tfljamcams.net/archive/A21_South_of_Ladywell_Rd/,51.4562,-0.01459
A10 Stoke Newington Rd Barretts Grove,26.00,http://archive.tfljamcams.net/archive/A10_Stoke_Newington_Rd_Barretts_Grove/,51.5522,-0.07486
A2 Falconwood,26.00,http://archive.tfljamcams.net/archive/A2_Falconwood/,51.4556,0.08867
A205 Dulwich Common College Rd,26.00,http://archive.tfljamcams.net/archive/A205_Dulwich_Common_College_Rd/,51.4417,-0.08474
A406 NCR Henlys Corner,26.00,http://archive.tfljamcams.net/archive/A406_NCR_Henlys_Corner/,51.59,-0.20008
Kenworthy Rd Brookfield Rd Wick Rd,26.00,http://archive.tfljamcams.net/archive/Kenworthy_Rd_Brookfield_Rd_Wick_Rd/,51.5452,-0.03557
A205 Woolwich Common Rd Ngale pl,26.00,http://archive.tfljamcams.net/archive/A205_Woolwich_Common_Rd_Ngale_pl/,51.4823,0.06202
Kensington High St Church St,26.00,http://archive.tfljamcams.net/archive/Kensington_High_St_Church_St/,51.502,-0.19082
A10 Grt Cambridge Rd Devonshire H Ln,26.00,http://archive.tfljamcams.net/archive/A10_Grt_Cambridge_Rd_Devonshire_H_Ln/,51.6067,-0.08556
A20 Sidcup Bypass Perry St,26.00,http://archive.tfljamcams.net/archive/A20_Sidcup_Bypass_Perry_St/,51.4183,0.09822
A40 Westway Paddington Grn,26.00,http://archive.tfljamcams.net/archive/A40_Westway_Paddington_Grn/,51.5202,-0.17351
Kentish Way N of Masons Hill,26.00,http://archive.tfljamcams.net/archive/Kentish_Way_N_of_Masons_Hill/,51.3989,0.02036
A13 Cotton St,26.00,http://archive.tfljamcams.net/archive/A13_Cotton_St/,51.5113,-0.01077
Old Kent Rd Glengall Rd,26.00,http://archive.tfljamcams.net/archive/Old_Kent_Rd_Glengall_Rd/,51.4861,-0.07211
East Cross Route Tredeger Rd,26.00,http://archive.tfljamcams.net/archive/East_Cross_Route_Tredeger_Rd/,51.5336,-0.02256
A12 Eastern Av Beehive Lane,26.00,http://archive.tfljamcams.net/archive/A12_Eastern_Av_Beehive_Lane/,51.5764,0.06064
Kings X Rd   Wharton St,26.00,http://archive.tfljamcams.net/archive/Kings_X_Rd___Wharton_St/,51.5276,-0.11548
A3 Clapham Road Mayflower Road,26.00,http://archive.tfljamcams.net/archive/A3_Clapham_Road_Mayflower_Road/,51.4678,-0.12809
A205 Verdant Lane,26.00,http://archive.tfljamcams.net/archive/A205_Verdant_Lane/,51.4452,0.00467
A12 Eastern Av Whalebone Ln,26.00,http://archive.tfljamcams.net/archive/A12_Eastern_Av_Whalebone_Ln/,51.5812,0.14109
A30 Great Sth W Rd The Parkway,26.00,http://archive.tfljamcams.net/archive/A30_Great_Sth_W_Rd_The_Parkway/,51.4725,-0.40497
A2 New Cross Rd Nettleton Rd,26.00,http://archive.tfljamcams.net/archive/A2_New_Cross_Rd_Nettleton_Rd/,51.4744,-0.04328
A406 Neasden Lane,26.00,http://archive.tfljamcams.net/archive/A406_Neasden_Lane/,51.5597,-0.2538
A21 Bromley Rd Newquay Rd,26.00,http://archive.tfljamcams.net/archive/A21_Bromley_Rd_Newquay_Rd/,51.4371,-0.0185
Kensington Rd Exhibition Rd,26.00,http://archive.tfljamcams.net/archive/Kensington_Rd_Exhibition_Rd/,51.5017,-0.17483
A1 Barnet Wy Barnet Ln,26.00,http://archive.tfljamcams.net/archive/A1_Barnet_Wy_Barnet_Ln/,51.6433,-0.25442
A4088 Forty Av Bridge Rd,26.00,http://archive.tfljamcams.net/archive/A4088_Forty_Av_Bridge_Rd/,51.5655,-0.2773
A205 Upper Rmond Rd Vine Rd,26.00,http://archive.tfljamcams.net/archive/A205_Upper_Rmond_Rd_Vine_Rd/,51.4651,-0.24949
A23 Streatham H Rd Streatham Cmn,26.00,http://archive.tfljamcams.net/archive/A23_Streatham_H_Rd_Streatham_Cmn/,51.4198,-0.128
A205 Kew Rd Kew Green,26.00,http://archive.tfljamcams.net/archive/A205_Kew_Rd_Kew_Green/,51.4853,-0.28752
Rotherhithe Tunnel Barrier S,26.00,http://archive.tfljamcams.net/archive/Rotherhithe_Tunnel_Barrier_S/,51.4992,-0.05514
A12 Eastern Av Brook Rd,26.00,http://archive.tfljamcams.net/archive/A12_Eastern_Av_Brook_Rd/,51.5755,0.09367
A205 E of Sydenham Hill,26.00,http://archive.tfljamcams.net/archive/A205_E_of_Sydenham_Hill/,51.4408,-0.06361
A12 Lstone E 3860A,26.00,http://archive.tfljamcams.net/archive/A12_Lstone_E_3860A/,51.5685,0.00745
A23 Brixton Rd Wynne Rd,26.00,http://archive.tfljamcams.net/archive/A23_Brixton_Rd_Wynne_Rd/,51.4692,-0.1125
Peckham Hg St wof Clayton Rd,26.00,http://archive.tfljamcams.net/archive/Peckham_Hg_St_wof_Clayton_Rd/,51.4739,-0.0665
Rotherhithe Tunnel Barrier N,26.00,http://archive.tfljamcams.net/archive/Rotherhithe_Tunnel_Barrier_N/,51.5123,-0.03911
Kennington Rd Kennington Grn,26.00,http://archive.tfljamcams.net/archive/Kennington_Rd_Kennington_Grn/,51.4855,-0.11139
A102 Shooters Hill,26.00,http://archive.tfljamcams.net/archive/A102_Shooters_Hill/,51.4746,0.02484
Park Lane Barclay Rd,26.00,http://archive.tfljamcams.net/archive/Park_Lane_Barclay_Rd/,51.3716,-0.09636
A24 Morden Rd Dorset Road,26.00,http://archive.tfljamcams.net/archive/A24_Morden_Rd_Dorset_Road/,51.4075,-0.19236
Marble Arch,26.00,http://archive.tfljamcams.net/archive/Marble_Arch/,51.5133,-0.16018
Northumberland Ave Victoria Emb,26.00,http://archive.tfljamcams.net/archive/Northumberland_Ave_Victoria_Emb/,51.5064,-0.12224
Purley Way Croydon Road,26.00,http://archive.tfljamcams.net/archive/Purley_Way_Croydon_Road/,51.368,-0.11885
Old Kent Rd Humphrey St,26.00,http://archive.tfljamcams.net/archive/Old_Kent_Rd_Humphrey_St/,51.4883,-0.07645
Nine Elms Ln Cringle St,26.00,http://archive.tfljamcams.net/archive/Nine_Elms_Ln_Cringle_St/,51.4812,-0.13804
A10 Carterhatch Lane,26.00,http://archive.tfljamcams.net/archive/A10_Carterhatch_Lane/,51.6592,-0.05914
A12 Eastern Av Barley Lane,26.00,http://archive.tfljamcams.net/archive/A12_Eastern_Av_Barley_Lane/,51.5823,0.11658
Old Kent Rd Preston Cls,26.00,http://archive.tfljamcams.net/archive/Old_Kent_Rd_Preston_Cls/,51.4925,-0.08365
Limehouse Tunnel The Highway,26.00,http://archive.tfljamcams.net/archive/Limehouse_Tunnel_The_Highway/,51.5107,-0.04053
Piccadilly St James St,26.00,http://archive.tfljamcams.net/archive/Piccadilly_St_James_St/,51.5078,-0.14052
A20 Lee High Rd Marischal Rd,26.00,http://archive.tfljamcams.net/archive/A20_Lee_High_Rd_Marischal_Rd/,51.4613,-0.0059
Park Lane Park St,26.00,http://archive.tfljamcams.net/archive/Park_Lane_Park_St/,51.3736,-0.09692
Park Lane   Upper Grosvenor St,26.00,http://archive.tfljamcams.net/archive/Park_Lane___Upper_Grosvenor_St/,51.5101,-0.1572
A10 North of Tyssen Road,26.00,http://archive.tfljamcams.net/archive/A10_North_of_Tyssen_Road/,51.5596,-0.07424
Romford Rd   Green St,26.00,http://archive.tfljamcams.net/archive/Romford_Rd___Green_St/,51.547,0.0318
Rainham Marshes,26.00,http://archive.tfljamcams.net/archive/Rainham_Marshes/,51.5102,0.19714
A406 Montagu Road,26.00,http://archive.tfljamcams.net/archive/A406_Montagu_Road/,51.6132,-0.05247
Brighton Rd Farthing Way,26.00,http://archive.tfljamcams.net/archive/Brighton_Rd_Farthing_Way/,51.3234,-0.13475
A205 Upper Rmond Rd East Sheen Ave,26.00,http://archive.tfljamcams.net/archive/A205_Upper_Rmond_Rd_East_Sheen_Ave/,51.465,-0.26212
A40   Near Connell Crescent,26.00,http://archive.tfljamcams.net/archive/A40___Near_Connell_Crescent/,51.5287,-0.28747
Peckham High St Rye Lane,26.00,http://archive.tfljamcams.net/archive/Peckham_High_St_Rye_Lane/,51.4733,-0.0701
Rushy Green Rosenthal Rd,26.00,http://archive.tfljamcams.net/archive/Rushy_Green_Rosenthal_Rd/,51.4488,-0.01722
Peckham Rd Kelly Ave Lyndhrst Wy,26.00,http://archive.tfljamcams.net/archive/Peckham_Rd_Kelly_Ave_Lyndhrst_Wy/,51.474,-0.07443
A30 Hatton Cross,26.00,http://archive.tfljamcams.net/archive/A30_Hatton_Cross/,51.4666,-0.42189
Tamworth Rd North End Rd,26.00,http://archive.tfljamcams.net/archive/Tamworth_Rd_North_End_Rd/,51.3779,-0.10251
Millennium Wy Edmund Halley Wy,26.00,http://archive.tfljamcams.net/archive/Millennium_Wy_Edmund_Halley_Wy/,51.4978,0.00289
A3 Clapham Rd Stockwell Park Rd,26.00,http://archive.tfljamcams.net/archive/A3_Clapham_Rd_Stockwell_Park_Rd/,51.4745,-0.12036
Oxford St Davies St,26.00,http://archive.tfljamcams.net/archive/Oxford_St_Davies_St/,51.5144,-0.1494
Romford Rd   Vicarage Lane,26.00,http://archive.tfljamcams.net/archive/Romford_Rd___Vicarage_Lane/,51.5427,0.00926
A23 Commerce Way,26.00,http://archive.tfljamcams.net/archive/A23_Commerce_Way/,51.3743,-0.11875
Brompton Rd Beaufort Grns,26.00,http://archive.tfljamcams.net/archive/Brompton_Rd_Beaufort_Grns/,51.4983,-0.16584
Stonecot Hill Hill Top,26.00,http://archive.tfljamcams.net/archive/Stonecot_Hill_Hill_Top/,51.3846,-0.21282
Piccadilly Whitehorse St,26.00,http://archive.tfljamcams.net/archive/Piccadilly_Whitehorse_St/,51.5054,-0.14559
A118 Romford Rd A406 Ncr,26.00,http://archive.tfljamcams.net/archive/A118_Romford_Rd_A406_Ncr/,51.5564,0.06491
New Kent Rd   Balfour St,26.00,http://archive.tfljamcams.net/archive/New_Kent_Rd___Balfour_St/,51.4941,-0.09159
Piccadilly Down St,26.00,http://archive.tfljamcams.net/archive/Piccadilly_Down_St/,51.5044,-0.1472
Pentonville Road   Penton Rise,26.00,http://archive.tfljamcams.net/archive/Pentonville_Road___Penton_Rise/,51.5314,-0.11401
Purley Way Waddon Road,26.00,http://archive.tfljamcams.net/archive/Purley_Way_Waddon_Road/,51.3708,-0.11724
East Hill Geraldinie Rd,26.00,http://archive.tfljamcams.net/archive/East_Hill_Geraldinie_Rd/,51.4575,-0.18575
A501 W of Mabledon Place,26.00,http://archive.tfljamcams.net/archive/A501_W_of_Mabledon_Place/,51.5283,-0.12807
Chiswick Roundabout (Northside),26.00,http://archive.tfljamcams.net/archive/Chiswick_Roundabout_(Northside)/,51.4918,-0.28207
Stratford Broadway Gt Eastern Rd,26.00,http://archive.tfljamcams.net/archive/Stratford_Broadway_Gt_Eastern_Rd/,51.5393,-0.00055
A406 A118 Mill House,26.00,http://archive.tfljamcams.net/archive/A406_A118_Mill_House/,51.5571,0.06588
A23 Streatham H Rd Hopton Rd,26.00,http://archive.tfljamcams.net/archive/A23_Streatham_H_Rd_Hopton_Rd/,51.4257,-0.13105
Stanstead Rd Blythe Hill Lane,26.00,http://archive.tfljamcams.net/archive/Stanstead_Rd_Blythe_Hill_Lane/,51.4422,-0.03345
A12 Eastern Ave Gants Hill R-About,26.00,http://archive.tfljamcams.net/archive/A12_Eastern_Ave_Gants_Hill_R-About/,51.5763,0.06674
Parliament Square,26.00,http://archive.tfljamcams.net/archive/Parliament_Square/,51.5011,-0.12628
PARK MEAD,26.00,http://archive.tfljamcams.net/archive/PARK_MEAD/,51.451,0.10833
Roehampton Vale Stag Lane,26.00,http://archive.tfljamcams.net/archive/Roehampton_Vale_Stag_Lane/,51.4388,-0.24865
Queenstwn Rd Chelsea Bridge,26.00,http://archive.tfljamcams.net/archive/Queenstwn_Rd_Chelsea_Bridge/,51.4798,-0.14879
A21 Bromley Rd Beckenham Hl Rd,26.00,http://archive.tfljamcams.net/archive/A21_Bromley_Rd_Beckenham_Hl_Rd/,51.427,-0.01055
Park Rd   Gloucester Pl,26.00,http://archive.tfljamcams.net/archive/Park_Rd___Gloucester_Pl/,51.5258,-0.16145
Ram St Barchard St,26.00,http://archive.tfljamcams.net/archive/Ram_St_Barchard_St/,51.4583,-0.19202
Mile End Rd Cephas Ave,26.00,http://archive.tfljamcams.net/archive/Mile_End_Rd_Cephas_Ave/,51.5212,-0.04894
Buckingham Palace Rd Eaton Lane,26.00,http://archive.tfljamcams.net/archive/Buckingham_Palace_Rd_Eaton_Lane/,51.4972,-0.14465
Pembroke Rd Cromwell Crescent,26.00,http://archive.tfljamcams.net/archive/Pembroke_Rd_Cromwell_Crescent/,51.4948,-0.19948
Stockwell Rd Chantrey Rd,26.00,http://archive.tfljamcams.net/archive/Stockwell_Rd_Chantrey_Rd/,51.4658,-0.11663
A13 Commercial Road Salmon Lane,26.00,http://archive.tfljamcams.net/archive/A13_Commercial_Road_Salmon_Lane/,51.5124,-0.032
East Road Vestry Street,26.00,http://archive.tfljamcams.net/archive/East_Road_Vestry_Street/,51.5297,-0.08708
A406 Great North Way,26.00,http://archive.tfljamcams.net/archive/A406_Great_North_Way/,51.5886,-0.20659
Harrow Rd Grt Western Rd,26.00,http://archive.tfljamcams.net/archive/Harrow_Rd_Grt_Western_Rd/,51.5243,-0.20166
A406 Golf Range,26.00,http://archive.tfljamcams.net/archive/A406_Golf_Range/,51.6036,-0.02199
A4 Colnbrook Stanwell Moor Rd,26.00,http://archive.tfljamcams.net/archive/A4_Colnbrook_Stanwell_Moor_Rd/,51.4839,-0.49248
A10 Broad Lane Talbot Rd,26.00,http://archive.tfljamcams.net/archive/A10_Broad_Lane_Talbot_Rd/,51.5843,-0.06899
Chelsea Embankment Albert Brdg,26.00,http://archive.tfljamcams.net/archive/Chelsea_Embankment_Albert_Brdg/,51.4837,-0.16732
Commercial Rd Cannon St Rd,26.00,http://archive.tfljamcams.net/archive/Commercial_Rd_Cannon_St_Rd/,51.5147,-0.06163
A205 Mortlake Rd Bessant Drive,26.00,http://archive.tfljamcams.net/archive/A205_Mortlake_Rd_Bessant_Drive/,51.4787,-0.28138
A2 Arbuthnot Lane,26.00,http://archive.tfljamcams.net/archive/A2_Arbuthnot_Lane/,51.4482,0.13535
A102 Woolwich Rd (S),26.00,http://archive.tfljamcams.net/archive/A102_Woolwich_Rd_(S)/,51.4798,0.02157
Craven Rd Eastborne Terrace,26.00,http://archive.tfljamcams.net/archive/Craven_Rd_Eastborne_Terrace/,51.5152,-0.17638
A2 Westmount Road,26.00,http://archive.tfljamcams.net/archive/A2_Westmount_Road/,51.4564,0.06041
A40 Greenford Flyover,26.00,http://archive.tfljamcams.net/archive/A40_Greenford_Flyover/,51.5359,-0.34627
Noel Road,26.00,http://archive.tfljamcams.net/archive/Noel_Road/,51.5203,0.04645
EIDT East Portal Pole,26.00,http://archive.tfljamcams.net/archive/EIDT_East_Portal_Pole/,51.5134,0.00141
A10 South of Laburnum St,26.00,http://archive.tfljamcams.net/archive/A10_South_of_Laburnum_St/,51.5349,-0.07688
Kew Rd Mortlake Rd,26.00,http://archive.tfljamcams.net/archive/Kew_Rd_Mortlake_Rd/,51.4828,-0.28694
Piccadilly Circus,26.00,http://archive.tfljamcams.net/archive/Piccadilly_Circus/,51.5096,-0.13484
A20 Lee High Rd Belmont Hill,26.00,http://archive.tfljamcams.net/archive/A20_Lee_High_Rd_Belmont_Hill/,51.4624,-0.0089
A1 Archway Rd Holmesdale Rd,26.00,http://archive.tfljamcams.net/archive/A1_Archway_Rd_Holmesdale_Rd/,51.5762,-0.14369
Mile End Rd Cambridge Heath Rd,26.00,http://archive.tfljamcams.net/archive/Mile_End_Rd_Cambridge_Heath_Rd/,51.5199,-0.05565
A40(M) Paddington Slip,26.00,http://archive.tfljamcams.net/archive/A40(M)_Paddington_Slip/,51.5204,-0.19227
Rocks Lane,26.00,http://archive.tfljamcams.net/archive/Rocks_Lane/,51.4653,-0.24389
A406 Holiday Inn,26.00,http://archive.tfljamcams.net/archive/A406_Holiday_Inn/,51.573,-0.22271
Nine Elms Ln Wandsworth Rd,26.00,http://archive.tfljamcams.net/archive/Nine_Elms_Ln_Wandsworth_Rd/,51.4848,-0.12858
Molesworth St Riversdale shops,26.00,http://archive.tfljamcams.net/archive/Molesworth_St_Riversdale_shops/,51.4618,-0.01334
Manor Rd New Plaistow Rd,26.00,http://archive.tfljamcams.net/archive/Manor_Rd_New_Plaistow_Rd/,51.5352,0.00881
A23 Streatham H Rd Greyhound Ln,26.00,http://archive.tfljamcams.net/archive/A23_Streatham_H_Rd_Greyhound_Ln/,51.422,-0.12926
A3 Roehampton Vale A308 Robin Hood,26.00,http://archive.tfljamcams.net/archive/A3_Roehampton_Vale_A308_Robin_Hood/,51.4359,-0.25594
Hammersmith Bway Shepherds Bush Rd,26.00,http://archive.tfljamcams.net/archive/Hammersmith_Bway_Shepherds_Bush_Rd/,51.493,-0.22387
A40(M) Eastern End,26.00,http://archive.tfljamcams.net/archive/A40(M)_Eastern_End/,51.5205,-0.17901
A12 GMT W Appr 3921J,26.00,http://archive.tfljamcams.net/archive/A12_GMT_W_Appr_3921J/,51.5728,0.0132
A12 Eastern Ave Heath Drive,26.00,http://archive.tfljamcams.net/archive/A12_Eastern_Ave_Heath_Drive/,51.5955,0.19637
A21 North of Davenport Rd,26.00,http://archive.tfljamcams.net/archive/A21_North_of_Davenport_Rd/,51.4498,-0.01692
A2 Riefield Road,26.00,http://archive.tfljamcams.net/archive/A2_Riefield_Road/,51.4586,0.07559
A3 Kingston Bypass South Lane,26.00,http://archive.tfljamcams.net/archive/A3_Kingston_Bypass_South_Lane/,51.3923,-0.26182
A10 High Rd Forster Rd,26.00,http://archive.tfljamcams.net/archive/A10_High_Rd_Forster_Rd/,51.5919,-0.07001
Kensington Hi St Warwick Rd,26.00,http://archive.tfljamcams.net/archive/Kensington_Hi_St_Warwick_Rd/,51.4967,-0.20537
A406 CROOKED BILLET,26.00,http://archive.tfljamcams.net/archive/A406_CROOKED_BILLET/,51.6007,-0.01663
Seven Sisters Rd Amhurst Pk,26.00,http://archive.tfljamcams.net/archive/Seven_Sisters_Rd_Amhurst_Pk/,51.5736,-0.08793
A23 south of Thornton Ave,26.00,http://archive.tfljamcams.net/archive/A23_south_of_Thornton_Ave/,51.387,-0.12104
Parkhurst Rd by Holloway Rd,26.00,http://archive.tfljamcams.net/archive/Parkhurst_Rd_by_Holloway_Rd/,51.5575,-0.12007
Montfichet Rd Hitchcock Lane Car Park C,26.00,http://archive.tfljamcams.net/archive/Montfichet_Rd_Hitchcock_Lane_Car_Park_C/,51.5446,-0.00354
Neasden Ln North A406,26.00,http://archive.tfljamcams.net/archive/Neasden_Ln_North_A406/,51.5606,-0.25377
A406 Billet Upass E,26.00,http://archive.tfljamcams.net/archive/A406_Billet_Upass_E/,51.6007,-0.01594
A205 W of Brockley Rise,26.00,http://archive.tfljamcams.net/archive/A205_W_of_Brockley_Rise/,51.4423,-0.04327
A23 Brixton Rd Ingleton St,26.00,http://archive.tfljamcams.net/archive/A23_Brixton_Rd_Ingleton_St/,51.4714,-0.11265
Commercial Rd Westport St,26.00,http://archive.tfljamcams.net/archive/Commercial_Rd_Westport_St/,51.5132,-0.04356
A102 Tunnel House N,26.00,http://archive.tfljamcams.net/archive/A102_Tunnel_House_N/,51.4969,0.00193
A12 Dyers Hl E 3830A,26.00,http://archive.tfljamcams.net/archive/A12_Dyers_Hl_E_3830A/,51.5661,0.00594
Pettman Crescent Western Way,26.00,http://archive.tfljamcams.net/archive/Pettman_Crescent_Western_Way/,51.4926,0.08607
Poplar Walk Wellesley Rd,26.00,http://archive.tfljamcams.net/archive/Poplar_Walk_Wellesley_Rd/,51.3785,-0.10001
Edgeware Rd Madia Ave,26.00,http://archive.tfljamcams.net/archive/Edgeware_Rd_Madia_Ave/,51.5243,-0.17652
Seven Sis Rd Moreton Rd,26.00,http://archive.tfljamcams.net/archive/Seven_Sis_Rd_Moreton_Rd/,51.578,-0.08271
Pear Island OHV,26.00,http://archive.tfljamcams.net/archive/Pear_Island_OHV/,51.4959,0.00319
Cromwell Rd Earls Court Rd,26.00,http://archive.tfljamcams.net/archive/Cromwell_Rd_Earls_Court_Rd/,51.4946,-0.1957
Bethnal Gr Rd Satchwell Rd,26.00,http://archive.tfljamcams.net/archive/Bethnal_Gr_Rd_Satchwell_Rd/,51.5259,-0.06906
A406 Brentfield Rd,26.00,http://archive.tfljamcams.net/archive/A406_Brentfield_Rd/,51.5519,-0.26117
A21 Bromley Rd Bellingham Rd,26.00,http://archive.tfljamcams.net/archive/A21_Bromley_Rd_Bellingham_Rd/,51.4335,-0.0178
Peckham Rd E of Vestry Rd,26.00,http://archive.tfljamcams.net/archive/Peckham_Rd_E_of_Vestry_Rd/,51.4737,-0.08359
A406 Staples Corner,26.00,http://archive.tfljamcams.net/archive/A406_Staples_Corner/,51.5713,-0.23189
A23 Streatham H Rd Kingscourt Rd,26.00,http://archive.tfljamcams.net/archive/A23_Streatham_H_Rd_Kingscourt_Rd/,51.4344,-0.12845
A4200 Woburn Pl Russell Sq,26.00,http://archive.tfljamcams.net/archive/A4200_Woburn_Pl_Russell_Sq/,51.5229,-0.12584
A12 GGT E Appr 4063A,26.00,http://archive.tfljamcams.net/archive/A12_GGT_E_Appr_4063A/,51.5765,0.03117
A312   White Hart R.bout,26.00,http://archive.tfljamcams.net/archive/A312___White_Hart_R.bout/,51.537,-0.38929
A312 Hampton Rd York Way,26.00,http://archive.tfljamcams.net/archive/A312_Hampton_Rd_York_Way/,51.4374,-0.38065
A2 Blackheath Hill Plumbridge St,26.00,http://archive.tfljamcams.net/archive/A2_Blackheath_Hill_Plumbridge_St/,51.4728,-0.01474
Millbank Vauxhall Bridge,26.00,http://archive.tfljamcams.net/archive/Millbank_Vauxhall_Bridge/,51.4887,-0.12974
A406 Fulbourne Road,26.00,http://archive.tfljamcams.net/archive/A406_Fulbourne_Road/,51.6004,-0.00925
Old Street Gt Eastern St,26.00,http://archive.tfljamcams.net/archive/Old_Street_Gt_Eastern_St/,51.5265,-0.08414
Old Brompton Rd   Earls Court Rd,26.00,http://archive.tfljamcams.net/archive/Old_Brompton_Rd___Earls_Court_Rd/,51.4896,-0.19005
Mile End Rd Harford St,26.00,http://archive.tfljamcams.net/archive/Mile_End_Rd_Harford_St/,51.5229,-0.04004
Archway Gyr Holloway Rd Jnc Rd,26.00,http://archive.tfljamcams.net/archive/Archway_Gyr_Holloway_Rd_Jnc_Rd/,51.5656,-0.1345
Scrubs Lane Harrow Rd,26.00,http://archive.tfljamcams.net/archive/Scrubs_Lane_Harrow_Rd/,51.532,-0.23728
Pooles Lane West,26.00,http://archive.tfljamcams.net/archive/Pooles_Lane_West/,51.5312,0.13762
Priory Rd Christchurch Rd,26.00,http://archive.tfljamcams.net/archive/Priory_Rd_Christchurch_Rd/,51.4167,-0.17875
A3 Clapham Rd A203 Sth Lambeth Rd,26.00,http://archive.tfljamcams.net/archive/A3_Clapham_Rd_A203_Sth_Lambeth_Rd/,51.4719,-0.12318
Romford Rd   Carlton Rd,26.00,http://archive.tfljamcams.net/archive/Romford_Rd___Carlton_Rd/,51.5497,0.04485
A12 Lea Bridge 3582A,26.00,http://archive.tfljamcams.net/archive/A12_Lea_Bridge_3582A/,51.5516,-0.01853
Portman Square Orchard St,26.00,http://archive.tfljamcams.net/archive/Portman_Square_Orchard_St/,51.5154,-0.15462
Oxford St Orchard St,26.00,http://archive.tfljamcams.net/archive/Oxford_St_Orchard_St/,51.514,-0.15409
A10 South of Farleigh Rd,26.00,http://archive.tfljamcams.net/archive/A10_South_of_Farleigh_Rd/,51.5548,-0.07466
Oxford Circus,26.00,http://archive.tfljamcams.net/archive/Oxford_Circus/,51.5154,-0.14204
ROMFORD ROAD,26.00,http://archive.tfljamcams.net/archive/ROMFORD_ROAD/,51.5623,0.05681
Prince Regents Lane W,26.00,http://archive.tfljamcams.net/archive/Prince_Regents_Lane_W/,51.5169,0.02795
Nine Elms,26.00,http://archive.tfljamcams.net/archive/Nine_Elms/,51.4843,-0.12684
North End Rd Talgarth Rd,26.00,http://archive.tfljamcams.net/archive/North_End_Rd_Talgarth_Rd/,51.4907,-0.20696
A22 Godstone Rd Dale Rd,26.00,http://archive.tfljamcams.net/archive/A22_Godstone_Rd_Dale_Rd/,51.335,-0.11268
Sthampton Row Vernon Plc,26.00,http://archive.tfljamcams.net/archive/Sthampton_Row_Vernon_Plc/,51.5191,-0.12116
Ruckholt Rd Sherrin Rd,26.00,http://archive.tfljamcams.net/archive/Ruckholt_Rd_Sherrin_Rd/,51.5547,-0.01696
Beverley Way Coombe Lane Flyover,26.00,http://archive.tfljamcams.net/archive/Beverley_Way_Coombe_Lane_Flyover/,51.416,-0.25097
A2 New Cross Rd Billington Rd,26.00,http://archive.tfljamcams.net/archive/A2_New_Cross_Rd_Billington_Rd/,51.4757,-0.04707
Purley Way Newman Rd,26.00,http://archive.tfljamcams.net/archive/Purley_Way_Newman_Rd/,51.3835,-0.12116
A2 Riefld Rochstr,26.00,http://archive.tfljamcams.net/archive/A2_Riefld_Rochstr/,51.458,0.08007
A23 London Road Norbury Crescent,26.00,http://archive.tfljamcams.net/archive/A23_London_Road_Norbury_Crescent/,51.4107,-0.12273
Old Kent Rd Peckham Pk R,26.00,http://archive.tfljamcams.net/archive/Old_Kent_Rd_Peckham_Pk_R/,51.483,-0.06423
Seven Sisters Rd Barrow Way,26.00,http://archive.tfljamcams.net/archive/Seven_Sisters_Rd_Barrow_Way/,51.5614,-0.11295
Romford Rd   Sprowston Rd,26.00,http://archive.tfljamcams.net/archive/Romford_Rd___Sprowston_Rd/,51.5464,0.0238
THE PARKWAY   UXBRIDGE ROAD,26.00,http://archive.tfljamcams.net/archive/THE_PARKWAY___UXBRIDGE_ROAD/,51.5168,-0.40116
Tadema Rd Sth Kings Rd,26.00,http://archive.tfljamcams.net/archive/Tadema_Rd_Sth_Kings_Rd/,51.4811,-0.18307
Queens Rd Pomeroy St Lausanne Rd,26.00,http://archive.tfljamcams.net/archive/Queens_Rd_Pomeroy_St_Lausanne_Rd/,51.4732,-0.05147
A3205 BATTERSEA PK RD - SAVONA ST,26.00,http://archive.tfljamcams.net/archive/A3205_BATTERSEA_PK_RD_-_SAVONA_ST/,51.4793,-0.14235
EIDT East Ramp,26.00,http://archive.tfljamcams.net/archive/EIDT_East_Ramp/,51.5141,0.00238
Goldhawk Rd HSmith Grove,26.00,http://archive.tfljamcams.net/archive/Goldhawk_Rd_HSmith_Grove/,51.5021,-0.22886
Catford One Way Rushey Green,26.00,http://archive.tfljamcams.net/archive/Catford_One_Way_Rushey_Green/,51.4449,-0.02012
Parkway Cranford High St,26.00,http://archive.tfljamcams.net/archive/Parkway_Cranford_High_St/,51.4838,-0.40773
Seven Sisters Rd by Sussex Way,26.00,http://archive.tfljamcams.net/archive/Seven_Sisters_Rd_by_Sussex_Way/,51.56,-0.11566
Edgware Rd Harrow Rd,26.00,http://archive.tfljamcams.net/archive/Edgware_Rd_Harrow_Rd/,51.5198,-0.16961
A3 East Of West Hill,26.00,http://archive.tfljamcams.net/archive/A3_East_Of_West_Hill/,51.4571,-0.19741
Prince Albert Rd Parkway,26.00,http://archive.tfljamcams.net/archive/Prince_Albert_Rd_Parkway/,51.5363,-0.14681
Prince Regents Lane E,26.00,http://archive.tfljamcams.net/archive/Prince_Regents_Lane_E/,51.518,0.03557
A23 Streatham H Rd Mnt Ephrian Rd,26.00,http://archive.tfljamcams.net/archive/A23_Streatham_H_Rd_Mnt_Ephrian_Rd/,51.4363,-0.12771
Queens Road Woods Road,26.00,http://archive.tfljamcams.net/archive/Queens_Road_Woods_Road/,51.474,-0.06234
Clapham Common Southside,26.00,http://archive.tfljamcams.net/archive/Clapham_Common_Southside/,51.4541,-0.14608
St Giles Circus,26.00,http://archive.tfljamcams.net/archive/St_Giles_Circus/,51.5164,-0.13022
Mortimer St Gt Portland St,26.00,http://archive.tfljamcams.net/archive/Mortimer_St_Gt_Portland_St/,51.5176,-0.14152
Pier Road Woolwich Ferry,26.00,http://archive.tfljamcams.net/archive/Pier_Road_Woolwich_Ferry/,51.4989,0.06368
A20 Sidcup Rd Coyler Close,26.00,http://archive.tfljamcams.net/archive/A20_Sidcup_Rd_Coyler_Close/,51.4351,0.06308
Nine Elms Ln Ponton Rd,26.00,http://archive.tfljamcams.net/archive/Nine_Elms_Ln_Ponton_Rd/,51.4832,-0.13308
Prince Regents Lane Jn,26.00,http://archive.tfljamcams.net/archive/Prince_Regents_Lane_Jn/,51.5175,0.03219
Notting Hill Gate Palace Grdns Ter,26.00,http://archive.tfljamcams.net/archive/Notting_Hill_Gate_Palace_Grdns_Ter/,51.5094,-0.19438
Movers Lane East,26.00,http://archive.tfljamcams.net/archive/Movers_Lane_East/,51.5314,0.09954
Scotch Corner,26.00,http://archive.tfljamcams.net/archive/Scotch_Corner/,51.5019,-0.16028
